Name of Operation,District,Area,Geographic Location,Licensed 2016,Opening Year,Hotel Rooms,Hotel Units,Total beds,Hotel Employment Males National,Hotel Employment Females National,Hotel Employment Males Foreign,Hotel Employment Females Foreign,Latitude,Longitude
18 Degrees North,Belize,San Pedro,Nothern Islands,Yes,2007,3,1,3,1,0,0,0,18.0454,-87.54705
3 D Vacations,Belize,San Pedro,Nothern Islands,Yes,2012,5,5,6,0,1,0,0,17.530775,-87.590958
3 Little Birds Guest House,Belize,Caye Caulker,Northern Islands ,Yes,2014,2,1,3,0,0,0,1,,
A Belizean Nirvana,Stann Creek,Placencia,SouthEastern Coast ,Yes,2011,5,5,5,2,4,0,0,16.516685,-88.366395
A La Plantacion ,Cayo,Cayo,Western Belize ,Yes,2012,2,2,0,0,0,0,0,,
A New Dawn Beach House ,Stann Creek,Placencia,SouthEastern Coast ,Yes,2014,6,3,3,0,1,0,1,16.634094,-88.33725
A Piece of Ground,Toledo,Toledo,Southern Belize,Yes,2006,5,5,19,1,1,0,0,16.091199,-88.810433
A.K. Mayflower Casita,Belize,San Pedro,Nothern Islands,Yes,2012,1,1,1,1,0,0,0,,
Abacus Cabanas ,Stann Creek,Hopkins,SouthEastern Coast ,Yes,2015,4,4,6,1,1,0,0,16.51029,-88.16519
Acropolis Maya Hotel ,Cayo,Cayo,Western Belize ,Yes,2009,16,13,19,0,0,0,0,17.156772,-89.071229
Affairs To Remember ,Stann Creek,Placencia,SouthEastern Coast ,Yes,2012,3,3,3,1,1,0,0,,
Agua Villa,Stann Creek,Placencia,SouthEastern Coast ,Yes,2007,1,1,4,1,1,0,0,,
Aguacate Homestay - Angelita Tosh,Toledo,Toledo,Southern Belize,Yes,2012,14,14,28,15,15,0,0,16.166354,-89.05166
Aguada Hotel ,Cayo,Cayo,Western Belize ,Yes,1994,24,19,36,4,11,0,0,17.156798,-89.057892
AJ Palms Beach House,Stann Creek,Hopkins,SouthEastern Coast ,Yes,2013,6,3,7,0,0,0,1,16.51149,-88.16749
Ak'Bol Yoga Resort,Belize,San Pedro,Nothern Islands,Yes,2008,37,37,37,4,5,0,0,17.56605,-87.5655
Akihito Hotel,Orange Walk,Orange Walk,Northern Belize,Yes,2001,22,18,28,1,2,0,0,18.4386,-88.33719
Aldy's Guest House ,Corozal,Corozal,Northern Belize,Yes,2006,12,8,8,1,0,0,0,18.23367,-88.232356
Aleman's Guest House,Toledo,Toledo,Southern Belize,No,2007,8,4,4,0,1,0,0,16.251288,-88.893973
Ally's Guest House,Stann Creek,Placencia,SouthEastern Coast ,Yes,2007,5,4,5,0,0,0,0,,
Almond Beach Resort,Stann Creek,Hopkins,SouthEastern Coast ,Yes,2003,20,20,33,4,8,0,0,16.839506,-88.270729
Almond Tree Hotel Resort,Corozal,Corozal,Northern Belize,Yes,2009,10,8,12,2,0,0,0,18.375615,-88.399
Alta Vista Accommodations,Belize,Caye Caulker,Northern Islands ,Yes,2011,2,2,1,1,1,0,0,17.737565,-88.028038
Amanda's Place,Belize,Caye Caulker,Northern Islands ,Yes,2003,6,6,6,1,1,0,0,17.741936,-88.024462
Amayanheaven ,Stann Creek,Hopkins,SouthEastern Coast ,Yes,2014,1,1,2,0,0,0,0,16.51415,-88.16597
Amber Sunset Jungle Lodge ,Cayo,Cayo,Western Belize ,Yes,2011,5,5,11,8,2,0,0,17.205416,-88.939203
Ambergris Lake Villas,Belize,San Pedro,Nothern Islands,Yes,2009,18,7,17,0,0,1,1,17.90595,-87.975776
Anchorage Resort,Belize,Caye Caulker,Northern Islands ,Yes,1997,18,18,32,2,4,0,0,17.73799,-88.026521
Anda the Hows Hostel,Stann Creek,Placencia,SouthEastern Coast ,Yes,2015,1,1,10,0,2,0,0,16.515038,-88.365213
Angels' Landing,Stann Creek,Placencia,SouthEastern Coast ,Yes,2010,2,2,2,1,1,0,0,16.39504,-88.18378
Anil Mar,Belize,San Pedro,Nothern Islands,Yes,2015,3,3,3,1,0,0,0,17.00251,-87.541
Aqua Oasis Guesthouse ,Stann Creek,Placencia,SouthEastern Coast ,No,2007,3,1,3,1,0,0,0,16.31166,-88.2221
Aqua Vista Beachfront Suites ,Belize,San Pedro,Nothern Islands,Yes,2013,12,6,6,1,1,0,0,17.926727,-87.958301
arthur's on the Caribbean,Belize,San Pedro,Nothern Islands,,1994,2,1,1,1,1,0,0,,
Ashby Villa,Stann Creek,Hopkins,SouthEastern Coast ,Yes,2014,2,2,4,2,1,0,0,16.50159,-88.16032
ASunsetBeachResort.Com,Belize,San Pedro,Nothern Islands,Yes,1998,28,25,28,1,1,0,0,17.889996,-87.979883
Athens Gate,Belize,San Pedro,Nothern Islands,Yes,2009,12,11,33,4,3,0,0,17.888838,-87.981981
Avana Villa,Cayo,Cayo,Western Belize ,Yes,2012,3,2,4,1,0,0,0,17.132937,-89.112124
Axios Apartments,Belize,Caye Caulker,Northern Islands ,Yes,2013,4,4,4,1,1,0,0,17.74262,-88.024232
Axios of The Sun,Belize,Caye Caulker,Northern Islands ,Yes,2013,2,2,3,1,1,0,0,17.731377,-88.030005
Azula Apartments ,Stann Creek,Placencia,SouthEastern Coast ,,2014,6,3,3,1,0,0,0,,
Bachelor Inn Hotel,Belize,Belize City,Central Coast Belize,Yes,2000,30,30,30,1,1,0,0,17.30571,-88.12047
Back-A-Bush Guest House,Toledo,Toledo,Southern Belize,,2010,6,3,8,0,0,1,1,,
Backpacker's Paradise,Corozal,Corozal,Northern Belize,Yes,2007,6,6,8,0,1,0,0,18.344736,-88.152897
Baja Mar Vacation House,Belize,San Pedro,Nothern Islands,Yes,2010,5,5,17,2,1,0,0,17.58549,-87.55212
Bamboleo Inn Belize ,Belize,Belize Rural,Central Coast Belize,Yes,2014,7,7,8,0,1,0,0,17.333926,-88.165304
Bamboo Gardens,Stann Creek,Placencia,SouthEastern Coast ,Yes,2014,5,5,5,1,1,0,0,,
Banana Bank Lodge ,Cayo,Cayo,Western Belize ,Yes,1999,19,19,47,14,10,0,0,17.289479,-88.775733
Banana Beach Resort,Belize,San Pedro,Nothern Islands,Yes,1999,64,64,64,5,13,1,0,17.904483,-87.975702
Banyan Bay Villas,Belize,San Pedro,Nothern Islands,Yes,1994,42,35,85,32,23,0,0,17.906307,-87.974376
Barefoot Beach Belize,Belize,Caye Caulker,Northern Islands ,Yes,2005,19,18,24,0,3,0,0,17.738077,-88.025608
Barefoot Caribe Hotel,Belize,Caye Caulker,Northern Islands ,Yes,2004,15,15,22,2,2,0,0,17.747305,-88.023892
Barnacle Bill's Beach Bungalows,Stann Creek,Placencia,SouthEastern Coast ,Yes,1999,3,2,4,1,1,0,0,16.610049,-88.353001
Bay View Guesthouse,Belize,Belize City,Central Coast Belize,Yes,2007,8,8,8,0,2,0,0,17.30314,-88.112
Bayside Guest House,Corozal,Corozal,Northern Belize,No,2010,8,4,7,0,1,0,0,18.393274,-88.383052
Beach House Bliss,Stann Creek,Hopkins,SouthEastern Coast ,Yes,2014,4,2,0,1,0,0,0,16.48539,-88.15387
Beaches & Dreams Seafront Inn,Stann Creek,Hopkins,SouthEastern Coast ,Yes,1999,11,11,20,9,11,1,1,16.51586,-88.17104
Beachfront Suites,Stann Creek,Placencia,SouthEastern Coast ,Yes,2004,3,3,3,1,1,0,0,,
Beachside Cottage ,Belize,Caye Caulker,Northern Islands ,Yes,2011,2,1,1,1,1,0,0,17.734146,-88.027933
Bed & Breakfast in Belize,Stann Creek,Dangriga,SouthEastern Coast ,Yes,2015,2,1,5,8,1,0,0,16.840614,-88.274118
Belcampo Lodge,Toledo,Toledo,Southern Belize,Yes,2006,17,17,21,52,27,1,1,16.111328,-88.811835
Belcove Hotel,Belize,Belize City,Central Coast Belize,Yes,1979,13,13,16,2,2,0,0,17.495669,-88.187885
Belcove Island lodge,Belize,Offshore North,Northern Islands ,Yes,2000,7,7,16,2,0,0,0,17.495416,-88.18755
Belize Adventure,Cayo,Cayo,Western Belize ,Yes,2015,2,2,2,0,0,1,1,16.59467,-89.02466
Belize Inn Your Dreams,Stann Creek,Stann Creek,SouthEastern Coast ,Yes,2011,2,2,2,0,0,0,0,16.841028,-88.272096
Belize Island Beach House,Belize,San Pedro,Nothern Islands,Yes,2010,6,6,7,1,0,0,0,17.993381,-87.924522
Belize Jungle Dome,Cayo,Cayo,Western Belize ,Yes,2004,5,5,4,3,3,0,0,17.288548,-88.778532
Belize Ocean Club ,Stann Creek,Placencia,SouthEastern Coast ,Yes,2013,60,30,180,62,32,0,0,16.626104,-88.351134
Belize Paradise Cabana Rentals,Stann Creek,Placencia,SouthEastern Coast ,Yes,2014,5,5,10,1,1,0,0,16.521217,-88.368496
Belize River Lodge,Belize,Belize Rural,Central Coast Belize,Yes,1960,8,8,16,11,7,0,0,,
Belizean Cove Estates,Belize,San Pedro,Nothern Islands,Yes,2009,8,6,21,5,3,0,0,17.95683,-87.939109
Belizean Dreams Resort,Stann Creek,Hopkins,SouthEastern Coast ,Yes,2004,27,21,27,24,22,0,0,16.50448,-88.16379
Belizean Reef Suites,Belize,San Pedro,Nothern Islands,Yes,1994,7,5,7,1,2,0,0,17.916782,-87.96446
Belizean Shores Resort,Belize,San Pedro,Nothern Islands,Yes,2001,48,42,72,13,9,0,0,17.956558,-87.939183
Bella Placencia Beach House,Stann Creek,Placencia,SouthEastern Coast ,Yes,2010,4,4,5,1,1,0,0,16.52571,-88.369759
Bella Sombra Guest House,Belize,Belize City,Central Coast Belize,Yes,2011,6,6,10,1,1,0,0,17.498353,-88.186216
Bella Sombra Guesthouse Kings Park ,Belize,Belize City,Central Coast Belize,Yes,2014,7,7,10,1,1,0,0,17.30463,-88.11345
Bella's ,Belize,Caye Caulker,Northern Islands ,Yes,2004,8,8,32,0,2,0,0,17.746785,-88.024581
Bella's Backpackers Hostel,Cayo,Cayo,Western Belize ,Yes,2010,5,4,25,1,1,0,0,17.158295,-89.071201
Belmopan Bed & Breakfast,Cayo,Belmopan,Western Belize ,Yes,2006,4,1,5,0,0,0,0,17.242266,-88.764544
Belmopan Hotel,Cayo,Belmopan,Western Belize ,No,1996,40,20,20,2,4,0,0,17.24886,-88.774539
Benque Resot & Spa,Cayo,Cayo,Western Belize ,Yes,2009,6,6,12,0,0,1,0,17.074424,-89.141858
Bermuda Beach ,Belize,San Pedro,Nothern Islands,Yes,2007,26,16,39,2,1,1,1,17.55549,-87.57184
Bermuda Landing Condominiums,Belize,San Pedro,Nothern Islands,Yes,2006,9,7,11,2,1,1,1,17.55549,-87.57184
Bermuda Palms ,Belize,San Pedro,Nothern Islands,Yes,2006,21,3,3,0,0,0,0,17.916016,-87.964954
Bernie's Beach House,Stann Creek,Placencia,SouthEastern Coast ,Yes,2014,3,1,1,0,0,0,0,16.558292,-88.36311
Best Western Belize Biltmore Plaza Hotel,Belize,Belize City,Central Coast Belize,Yes,1990,80,80,80,41,59,1,0,17.514468,-88.224527
Better In Belize Eco Lodge,Cayo,Cayo,Western Belize ,Yes,2011,5,2,1,1,2,0,0,16.593198,-89.025098
Beya Suites,Toledo,Toledo,Southern Belize,Yes,2005,11,10,12,2,3,0,0,16.150987,-88.798794
BFREE,Toledo,Toledo,Southern Belize,,1999,20,10,32,5,4,0,0,,
Big Blue VacationRental,Stann Creek,Placencia,SouthEastern Coast ,Yes,2016,3,3,3,1,1,0,0,16.520919,-88.372825
Big Falls Cottages,Toledo,Toledo,Southern Belize,Yes,2013,2,2,4,2,1,0,0,16.093876,-88.534598
Billy Hawk Caye Lodge,Stann Creek,Offshore South,SouthEastern Coast ,Yes,2009,15,15,16,3,4,0,0,16.787526,-88.157524
Bird Island Placencia,Stann Creek,Offshore South,SouthEastern Coast ,Yes,2015,3,3,4,0,1,0,0,16.29221,-88.16051
Bird's Eye Lodge,Belize,Belize Rural,Central Coast Belize,No,1993,26,26,51,4,6,0,0,17.768775,-88.529184
BJ's Amir Inn,Stann Creek,Placencia,SouthEastern Coast ,Yes,2007,3,3,8,0,0,0,0,,
Black Orchid Resort,Belize,Belize Rural,Central Coast Belize,Yes,2004,23,23,36,13,13,0,0,17.341526,-88.234408
Black Pearl Inn,Toledo,Toledo,Southern Belize,,2013,8,4,6,1,1,0,0,,
Black Rock Lodge  ,Cayo,Cayo,Western Belize ,Yes,2007,20,20,31,28,9,3,2,17.047171,-89.060903
Blackbird Caye Resort,Belize,Offshore North,Northern Islands ,Yes,1994,20,18,18,10,6,0,0,17.440163,-87.837759
Blancaneaux Lodge ,Cayo,Cayo,Western Belize ,Yes,1992,20,20,29,85,17,1,1,17.036984,-88.953326
Blue Agave House,Stann Creek,Placencia,SouthEastern Coast ,No,2015,3,3,3,1,1,0,0,16.36483,-88.21178
Blue Belize Guesthouse,Toledo,Toledo,Southern Belize,Yes,2006,9,8,12,1,1,0,0,16.102939,-88.807164
Blue Bone Fish Belize Villa ,Belize,San Pedro,Nothern Islands,Yes,2010,6,5,11,2,1,0,0,17.898764,-87.981952
Blue Crab House,Stann Creek,Placencia,SouthEastern Coast ,,1994,4,2,2,1,1,0,0,,
Blue Creek Hillside B &B,Orange Walk,Orange Walk,Northern Belize,Yes,1997,10,8,9,0,1,0,0,18.133704,-88.668243
Blue Creek Rainforest Lodge,Toledo,Toledo,Southern Belize,Yes,1994,9,9,40,3,3,0,0,,
Blue Dolphin ,Belize,San Pedro,Nothern Islands,Yes,2002,7,7,7,1,1,0,0,17.963986,-87.931305
Blue Garden House,Stann Creek,Placencia,SouthEastern Coast ,Yes,2007,3,3,4,0,0,0,0,16.520901,-88.37294
Blue Heven Beach Cabana ,Stann Creek,Hopkins,SouthEastern Coast ,Yes,2014,2,2,5,1,0,0,0,16.52406,-88.17193
Blue Horizon Lodge,Stann Creek,Offshore South,SouthEastern Coast ,No,1997,6,3,6,5,2,0,0,16.411723,-88.11125
Blue Lagoon Apartments,Stann Creek,Placencia,SouthEastern Coast ,,2008,16,8,13,1,1,0,0,,
Blue Marlin Beach Resort,Stann Creek,Offshore South,SouthEastern Coast ,Yes,1989,14,14,23,3,8,0,0,16.817421,-88.08213
Blue Moon Cabana,Stann Creek,Hopkins,SouthEastern Coast ,Yes,2011,2,2,3,0,0,1,0,16.860785,-88.282912
Blue Sky Hotel,Stann Creek,Placencia,SouthEastern Coast ,Yes,2011,7,7,14,1,0,0,0,16.522802,-88.370634
Blue Tang Inn,Belize,San Pedro,Nothern Islands,Yes,2000,14,14,20,6,4,0,0,17.923036,-87.95945
Blue Wave Guest House,Belize,Caye Caulker,Northern Islands ,Yes,2001,10,10,12,1,1,0,0,17.44503,-88.01469
Blue Wave Villa,Belize,San Pedro,Nothern Islands,Yes,2014,7,4,5,0,1,0,0,17.747384,-88.023985
Bocatura Cabins,Stann Creek,Hopkins,SouthEastern Coast ,Yes,2014,5,5,5,1,1,0,0,16.4948,-88.17081
Bonefish Hotel,Stann Creek,Dangriga,SouthEastern Coast ,Yes,1994,8,8,11,1,3,0,0,16.965866,-88.219066
Bonita's Bayside Cabanas,Belize,Caye Caulker,Northern Islands ,Yes,2012,6,3,5,1,1,0,0,,
Botanical Paradise,Belize,Caye Caulker,Northern Islands ,Yes,2015,1,1,1,3,3,0,0,,
Brianna's Beach House ,Belize,San Pedro,Nothern Islands,Yes,1999,2,2,2,0,1,0,0,,
Buckner Beach Cabin's Placencia ,Stann Creek,Placencia,SouthEastern Coast ,Yes,2015,8,4,5,0,1,0,0,,
Bull Frog Inn,Cayo,Belmopan,Western Belize ,Yes,1986,26,26,38,2,14,0,0,17.251706,-88.764365
Bullet Tree Riverside Cabanas,Cayo,Cayo,Western Belize ,Yes,2003,3,3,3,2,3,0,0,17.171901,-89.108705
Bull's Beach Cabanas,Stann Creek,Placencia,SouthEastern Coast ,Yes,2002,4,4,7,0,1,0,0,16.518745,-88.26693
Buttonwood Guest House,Stann Creek,Dangriga,SouthEastern Coast ,Yes,2012,5,5,7,0,0,0,1,16.865638,-88.285099
Buy Belize Real Estate - H4 Thurton,Belize,Belize City,Central Coast Belize,Yes,2015,1,1,1,1,0,0,0,17.30567,-88.13229
Buy Belize Real Estate - House 1 Woods,Belize,Belize City,Central Coast Belize,Yes,2014,1,1,1,1,0,0,0,17.30332,-88.13314
Buy Belize Real Estate House 3 - Fabro,Belize,Belize City,Central Coast Belize,Yes,2014,3,3,4,1,0,0,0,17.29248,-88.1111
C & C Comfort Rooms,Stann Creek,Placencia,SouthEastern Coast ,Yes,2007,4,3,3,0,2,0,0,,
C. I. T. Apartments,Orange Walk,Orange Walk,Northern Belize,Yes,2011,17,3,3,1,1,0,0,18.34221,-88.34221
Cabo's Hotel,Cayo,Belmopan,Western Belize ,Yes,2011,10,10,9,1,1,0,0,17.258927,-88.80392
Cahal Pech Village Resort ,Cayo,Cayo,Western Belize ,Yes,1995,58,58,100,23,23,0,0,17.147924,-89.075547
Calico Jack's Village ,Cayo,Cayo,Western Belize ,Yes,2011,12,9,17,14,3,0,0,17.094793,-88.951325
Calstrom House,Belize,San Pedro,Nothern Islands,Yes,2010,3,3,3,1,1,0,0,,
Calypso Beach Retreat,Belize,Offshore North,Northern Islands ,Yes,2004,4,4,14,1,2,0,0,17.222006,-87.591608
Camalote Camp,Cayo,Cayo,Western Belize ,Yes,2007,11,11,76,2,2,0,0,17.246556,-88.825132
Canary Cove ,Belize,San Pedro,Nothern Islands,Yes,2013,9,8,10,6,2,0,0,18.00164,-87.943252
Candelie's Sunset Cabanas ,Corozal,Corozal,Northern Belize,No,2000,4,2,4,1,2,0,0,18.21102,-88.090276
Canuck Cottage,Belize,Caye Caulker,Northern Islands ,Yes,2005,6,3,4,0,0,0,1,17.737522,-88.027565
Capp's Inn,Stann Creek,Placencia,SouthEastern Coast ,Yes,2014,2,2,4,0,1,1,0,,
Captain Jak's,Stann Creek,Placencia,SouthEastern Coast ,Yes,2003,11,11,12,2,1,0,0,16.518936,-88.369759
Captain Morgan's Retreat,Belize,San Pedro,Nothern Islands,Yes,1987,34,34,34,59,26,0,0,17.957269,-87.937305
Captain's House & Crown's Nest ,Stann Creek,Placencia,SouthEastern Coast ,Yes,2003,4,4,5,0,2,0,0,,
Cardie's Hotel,Stann Creek,Independence,SouthEastern Coast ,Yes,1997,24,12,24,1,3,0,0,16.31516,-88.26066
Caribbean Beach Cabanas,Stann Creek,Placencia,SouthEastern Coast ,Yes,2003,6,6,7,3,5,0,0,16.521228,-88.368504
Caribbean Hotel ,Belize,Belize City,Central Coast Belize,Yes,2015,22,22,19,0,2,0,0,17.30434,-88.12585
Caribbean Rental Delites,Stann Creek,Placencia,SouthEastern Coast ,Yes,2010,2,2,6,1,1,0,0,16.614776,-88.353483
Caribbean Shores Bed and Breakfast,Stann Creek,Hopkins,SouthEastern Coast ,Yes,2011,7,6,6,1,3,0,0,16.840009,-88.24228
Caribbean Splash,Stann Creek,Placencia,SouthEastern Coast ,Yes,2016,1,1,1,0,0,0,0,16.527108,-88.364911
Caribbean Villas Hotel,Belize,San Pedro,Nothern Islands,Yes,1991,60,60,72,15,13,3,0,17.909861,-87.972508
Caribbean Way Villa,Stann Creek,Placencia,SouthEastern Coast ,Yes,2014,3,3,3,1,1,0,0,16.672442,-88.309855
Caribe Island Resort,Belize,San Pedro,Nothern Islands,Yes,1996,50,27,45,8,7,0,0,17.890727,-87.980009
Carolyn's House,Belize,Caye Caulker,Northern Islands ,Yes,2009,2,2,2,0,1,0,0,17.73771,-88.025654
Casa Amarillo,Belize,San Pedro,Nothern Islands,Yes,2011,2,2,6,1,1,0,0,17.879416,-87.994357
Casa Ambergris,Belize,San Pedro,Nothern Islands,Yes,2014,2,1,3,0,1,0,0,17.554255,-87.574
Casa B'Alam,Belize,San Pedro,Nothern Islands,Yes,2012,2,2,2,1,0,0,0,,
Casa Beya/Seagrape Escape,Stann Creek,Placencia,SouthEastern Coast ,Yes,2009,10,5,7,1,1,0,0,,
Casa Blanca Beach Resort ,Belize,San Pedro,Nothern Islands,Yes,2005,4,4,6,2,1,0,0,17.58426,-87.55257
Casa Blance Guest House,Cayo,Cayo,Western Belize ,Yes,2001,9,9,18,0,2,0,0,,
Casa Bonita,Belize,San Pedro,Nothern Islands,Yes,2010,4,4,4,1,1,0,0,17.938803,-87.949703
Casa Bonita Apartments,Toledo,Toledo,Southern Belize,No,2004,6,3,4,1,1,0,0,16.07108,-88.474348
Casa Checking Out,Belize,San Pedro,Nothern Islands,Yes,2015,4,4,5,1,0,0,0,17.52496,-87.593594
Casa Chica,Corozal,Corozal,Northern Belize,Yes,2015,3,3,3,1,0,0,0,18.235105,-88.24104
Casa Ciiclee,Belize,Caye Caulker,Northern Islands ,Yes,2015,4,4,4,0,0,1,1,,
Casa Coral ,Belize,San Pedro,Nothern Islands,Yes,2004,3,3,4,0,0,0,0,17.924219,-87.958993
Casa De La Vista,Stann Creek,Placencia,SouthEastern Coast ,Yes,2014,3,2,3,1,1,0,0,16.633857,-88.33737
Casa de Lisa,Belize,San Pedro,Nothern Islands,Yes,2002,5,5,10,1,1,0,0,,
Casa De Suenos,Belize,San Pedro,Nothern Islands,Yes,2010,2,2,2,1,0,0,0,,
Casa Del Mar,Belize,Belize Rural,Central Coast Belize,Yes,2014,1,1,3,0,1,0,0,,
Casa Esmeralda,Belize,Caye Caulker,Northern Islands ,Yes,2015,6,3,3,1,0,0,0,,
Casa Gonzo,Belize,San Pedro,Nothern Islands,Yes,2014,4,4,6,1,1,0,0,,
Casa Hill View ,Cayo,Cayo,Western Belize ,Yes,2015,3,1,4,1,1,0,0,,
Casa Laguna Vista,Stann Creek,Placencia,SouthEastern Coast ,Yes,2014,2,2,2,1,1,0,0,,
Casa Layla,Belize,San Pedro,Nothern Islands,Yes,2014,4,4,10,1,0,0,0,17.991849,-87.918243
Casa Mayan Breeze,Belize,San Pedro,Nothern Islands,Yes,2010,2,2,3,0,0,0,0,,
Casa Mi Hermana,Belize,San Pedro,Nothern Islands,Yes,2009,4,2,3,1,1,0,0,,
Casa Miradores,Belize,San Pedro,Nothern Islands,Yes,2010,2,2,2,1,1,0,0,18.002456,-87.942179
Casa Nan,Cayo,Cayo,Western Belize ,Yes,2009,2,2,4,1,1,0,0,,
Casa Nettuno,Stann Creek,Placencia,SouthEastern Coast ,Yes,2010,1,1,2,1,1,0,0,,
Casa Nirvana,Belize,San Pedro,Nothern Islands,Yes,2000,3,3,3,0,0,1,0,18.001596,-87.943283
Casa Nuestro,Stann Creek,Placencia,SouthEastern Coast ,,2014,4,2,2,0,0,1,1,,
Casa Palma,Stann Creek,Placencia,SouthEastern Coast ,Yes,2011,7,7,7,2,2,0,0,16.52157,-88.368665
Casa Placencia,Stann Creek,Placencia,SouthEastern Coast ,Yes,2008,8,8,9,2,0,0,0,16.525847,-88.36992
Casa Punta Azul,Belize,San Pedro,Nothern Islands,Yes,2013,2,2,3,0,1,0,0,,
Casa Redonda,Belize,San Pedro,Nothern Islands,Yes,2005,8,8,9,1,1,0,0,,
Casa Rosado,Belize,Caye Caulker,Northern Islands ,Yes,2002,4,2,4,0,1,0,0,17.745082,-88.024693
Casa Santa Maria,Cayo,Cayo,Western Belize ,Yes,2014,4,4,4,0,1,0,0,,
Casa Sophia,Cayo,Belmopan,Western Belize ,Yes,2014,5,5,6,1,0,0,0,17.123554,-88.56293
Casa Tortuga Villa,Belize,San Pedro,Nothern Islands,Yes,1995,5,5,5,1,1,0,0,,
Casa Tuilpan,Belize,San Pedro,Nothern Islands,Yes,2010,1,1,1,1,1,0,0,,
Casas Bellas Vista,Stann Creek,Placencia,SouthEastern Coast ,,2013,10,5,6,0,0,1,0,,
Casita Bella Vida,Belize,Caye Caulker,Northern Islands ,Yes,2014,2,2,2,0,0,0,0,,
Casita Del Mar,Stann Creek,Hopkins,SouthEastern Coast ,Yes,2015,2,2,4,0,0,0,0,16.51289,-88.168
Casita Margarita ,Stann Creek,Placencia,SouthEastern Coast ,Yes,2012,1,1,1,0,1,0,0,,
Casitas Calinas,Cayo,Cayo,Western Belize ,Yes,2011,2,2,4,1,1,0,0,17.154659,-88.502372
Caves Branch Jungle Lodge  ,Cayo,Cayo,Western Belize ,Yes,1993,23,23,71,61,28,0,0,17.167308,-88.683435
Caye Casa,Belize,San Pedro,Nothern Islands,Yes,2003,12,11,12,1,3,0,0,17.92783,-87.958048
Caye Caulker Condos,Belize,Caye Caulker,Northern Islands ,Yes,2003,8,8,8,1,4,0,0,17.749141,-88.024039
Caye Caulker Plaza Hotel,Belize,Caye Caulker,Northern Islands ,Yes,2008,31,30,50,5,5,0,0,17.743297,-88.02513
Caye Caulker Towers,Belize,Caye Caulker,Northern Islands ,Yes,2013,4,4,4,0,2,0,0,17.736058,-88.02813
Caye Reef Condo,Belize,Caye Caulker,Northern Islands ,Yes,2009,6,6,14,1,2,0,0,17.748423,-88.024029
Caye Rentals,Belize,Caye Caulker,Northern Islands ,Yes,2013,10,10,12,3,4,0,0,17.743311,-88.025505
Caye Villas ,Belize,San Pedro,Nothern Islands,Yes,2010,12,9,10,3,0,0,0,,
Central O'tel,Cayo,Cayo,Western Belize ,Yes,1970,9,7,12,1,0,0,0,,
Cerros Beach Inn,Corozal,Corozal,Northern Belize,Yes,2006,4,4,6,0,0,1,1,18.360668,-88.34059
Chabil Mar,Stann Creek,Placencia,SouthEastern Coast ,Yes,2005,44,39,62,29,15,1,1,16.526827,-88.364631
Chaleanor Hotel,Stann Creek,Dangriga,SouthEastern Coast ,Yes,1994,18,18,37,3,4,0,0,16.966219,-88.220032
Chan Chich,Orange Walk,Orange Walk,Northern Belize,Yes,1988,15,15,15,10,10,1,0,17.539013,-89.111284
Changes In Latitudes,Belize,San Pedro,Nothern Islands,Yes,1993,7,7,9,0,2,0,0,17.913411,-87.967923
Charlton's Inn,Toledo,Toledo,Southern Belize,Yes,1990,26,26,50,2,5,0,0,16.094726,-88.801477
Charo's Guest House,Stann Creek,Placencia,SouthEastern Coast ,No,2011,12,6,7,1,1,0,0,16.3059.42,-88.22067
Chateau Caribbean Hotel,Belize,Belize City,Central Coast Belize,Yes,1980,25,25,28,7,15,0,0,17.294019,-88.105232
Chaya Maya Jungle Lodge,Cayo,Cayo,Western Belize ,Yes,2015,3,3,3,2,1,0,0,17.245632,-88.860676
Cheers Cabanas,Cayo,Cayo,Western Belize ,Yes,2004,3,3,5,4,10,0,0,17.323588,-88.564738
Chez Caribe,Belize,San Pedro,Nothern Islands,Yes,2006,3,2,2,1,0,0,0,,
Chila's Beach Front Studio,Belize,Caye Caulker,Northern Islands ,Yes,2011,3,3,3,0,0,0,0,17.747679,-88.023991
China Town Hotel,Belize,Caye Caulker,Northern Islands ,Yes,2007,69,69,60,2,4,0,0,17.741404,-88.025459
Chiquibul Ranch ,Cayo,Cayo,Western Belize ,Yes,2014,2,1,4,1,0,0,0,17.097203,-88.973503
Chocolate's Guest House,Belize,Caye Caulker,Northern Islands ,Yes,1997,2,1,1,0,1,0,0,17.4486,-88.0143
Christy's Casa,Stann Creek,Hopkins,SouthEastern Coast ,Yes,2015,6,6,8,0,0,0,0,16.49331,-88.16005
Circle C Inn,Toledo,Toledo,Southern Belize,Yes,1994,7,7,10,0,1,0,0,16.092835,-88.809932
City Light Guest House,Corozal,Corozal,Northern Belize,No,2011,6,6,6,1,0,0,0,18.233031,-88.231792
Clarissa Falls Resort ,Cayo,Cayo,Western Belize ,Yes,1991,15,15,43,1,1,0,0,17.110989,-89.126947
Cocao Rainforest Lodge,Cayo,Cayo,Western Belize ,Yes,2014,5,4,6,1,4,0,0,17.085789,-88.424564
Cockscomb Basin Wildlife Sanctuary,Stann Creek,Stann Creek,SouthEastern Coast ,Yes,1997,15,15,14,8,1,0,0,16.4413,-87.27292
Coco Beach Resort,Belize,San Pedro,Nothern Islands,Yes,2009,62,59,112,22,20,0,0,17.57394,-87.56351
Coco Plum Island Resort ,Stann Creek,Offshore South,SouthEastern Coast ,Yes,2002,18,18,18,20,17,0,0,16.881524,-88.119113
Coconut Cottage,Stann Creek,Placencia,SouthEastern Coast ,Yes,1995,1,1,2,0,0,0,0,16.30593,-88.21584
Coconut Grove,Belize,Caye Caulker,Northern Islands ,Yes,2011,2,1,1,1,1,0,0,17.723534,-88.027317
Coconut Row Guest House ,Stann Creek,Hopkins,SouthEastern Coast ,Yes,2011,6,5,11,3,5,0,0,16.86273,-88.283612
Cocopele Inn,Cayo,Cayo,Western Belize ,Yes,2014,7,7,15,0,0,0,1,17.158253,-89.065791
Cocoplum Vacation Rentals,Stann Creek,Placencia,SouthEastern Coast ,Yes,2011,14,13,14,3,2,0,0,,
Cocotal Inn and Cabanas,Belize,San Pedro,Nothern Islands,Yes,2007,9,9,11,4,1,0,0,17.95246,-87.941149
Colibri house,Stann Creek,Placencia,SouthEastern Coast ,Yes,2001,2,2,4,0,0,0,0,,
Colinda Cabanas,Belize,Caye Caulker,Northern Islands ,Yes,2011,11,11,18,3,4,0,0,17.737283,-88.026167
Colonial Suites,Stann Creek,Hopkins,SouthEastern Coast ,Yes,2003,10,10,18,2,4,0,0,16.839919,-88.270731
Come 'N' Dine Motel,Orange Walk,Orange Walk,Northern Belize,,2004,7,7,13,1,2,0,0,,
Compass Rose Guest House-Belize,Stann Creek,Hopkins,SouthEastern Coast ,Yes,2008,1,1,2,0,0,1,1,16.49902,-88.15989
Conch Shell Inn,Belize,San Pedro,Nothern Islands,Yes,2008,10,10,20,0,2,0,0,,
Coningsby Inn,Belize,Belize City,Central Coast Belize,Yes,2000,11,10,16,0,2,0,0,17.49088,-88.187129
Cool M Farm Cabanas ,Cayo,Cayo,Western Belize ,Yes,2001,2,2,4,0,0,0,0,17.153656,-89.057263
Copper Horse Inn,Corozal,Corozal,Northern Belize,Yes,2011,7,7,10,2,5,0,0,18.792968,-88.381706
Coral Bay Villas,Belize,San Pedro,Nothern Islands,Yes,1998,7,6,6,2,2,0,0,17.90973,-87.971262
Coral Cottages,Corozal,Corozal,Northern Belize,Yes,2012,3,3,4,0,1,0,0,18.38979,-88.399701
Coral House Inn,Toledo,Toledo,Southern Belize,Yes,2005,6,6,9,3,6,0,0,16.098706,-88.808145
Coral Pelicano Vacation Home,Belize,San Pedro,Nothern Islands,Yes,2010,3,3,3,0,0,0,0,,
Corona Del Mar Company Ltd. ,Belize,San Pedro,Nothern Islands,Yes,2009,43,42,62,7,11,0,0,17.543727,-87.58175
Cosmopolitan Guest House ,Stann Creek,Hopkins,SouthEastern Coast ,Yes,2014,7,7,11,0,1,0,0,16.839962,-88.273443
Costa Blu Dive Beach Resort ,Belize,San Pedro,Nothern Islands,Yes,2016,40,39,40,12,6,0,0,18.003578,-87.912548
Costa Maya Beach Cabanas,Belize,Caye Caulker,Northern Islands ,Yes,1999,13,13,21,1,2,0,0,17.748651,-88.024159
Cotton Tree Lodge,Toledo,Toledo,Southern Belize,Yes,2006,17,17,39,16,7,0,0,16.101712,-88.927651
Cozy Corner Hotel,Stann Creek,Placencia,SouthEastern Coast ,Yes,1998,12,12,22,2,14,0,0,16.517926,-88.366916
Crocodile Creek Cabanas,Stann Creek,Placencia,SouthEastern Coast ,Yes,2016,3,2,3,1,1,0,0,,
Crooked Tree Lodge,Belize,Belize Rural,Central Coast Belize,Yes,2008,6,6,8,0,0,0,0,17.734522,-88.53414
Crystal Paradise Resort,Cayo,Cayo,Western Belize ,Yes,1992,18,18,47,4,3,0,0,17.125282,-89.059136
CSFI- Shipstern Conservation & Management Area,Corozal,Corozal,Northern Belize,Yes,2015,6,6,30,6,8,0,0,18.317819,-88.18308
D * Victoria Hotel,Orange Walk,Orange Walk,Northern Belize,Yes,1997,29,29,57,5,3,0,0,18.4394,-88.33719
D Nest Inn,Belize,Belize City,Central Coast Belize,Yes,2004,6,4,5,0,0,0,0,17.508953,-88.222646
Dangriga Central Hotel ,Stann Creek,Dangriga,SouthEastern Coast ,Yes,1989,12,12,17,2,2,0,0,16.959204,-88.224105
Darangilau Guest House,Stann Creek,Hopkins,SouthEastern Coast ,Yes,2004,6,5,7,1,1,0,0,16.862684,-88.283788
Day Dreamin' Bed & Breakfast ,Belize,San Pedro,Nothern Islands,Yes,2015,4,4,4,1,2,0,0,17.941382,-87.948053
De Real Macaw,Belize,Caye Caulker,Northern Islands ,Yes,2002,11,11,19,1,3,0,1,17.746692,-88.023774
Deb & Dave's Last Resort,Stann Creek,Placencia,SouthEastern Coast ,Yes,1993,4,4,6,0,1,0,0,16.517918,-88.368684
Debbie's Beach House,Belize,San Pedro,Nothern Islands,Yes,2010,4,4,5,1,1,0,0,17.951117,-87.94112
Decked Out House,Stann Creek,Placencia,SouthEastern Coast ,Yes,2006,3,3,8,0,0,0,0,16.3114.46,-88.221866
Diamond Hotel,Belize,Belize City,Central Coast Belize,Yes,2001,15,15,15,0,4,0,0,17.31358,-88.14163
Diamond Reef Condominiums,Belize,San Pedro,Nothern Islands,Yes,2007,3,2,6,1,1,0,0,18.00259,-87.5441
Diane's Beach House,Belize,Caye Caulker,Northern Islands ,Yes,2002,1,1,1,0,1,0,0,17.743082,-88.023622
Dimas Villas Guest House,Belize,Belize City,Central Coast Belize,Yes,2004,5,5,6,0,1,0,0,17.513947,-88.216048
Dirty McNasty's Hostel,Belize,Caye Caulker,Northern Islands ,Yes,2012,15,14,83,1,5,0,0,17.746528,-88.024456
Dolce Cabana,Stann Creek,Placencia,SouthEastern Coast ,Yes,2012,6,4,7,0,0,0,0,16.520579,-88.372181
Dolphin Motel,Stann Creek,Independence,SouthEastern Coast ,Yes,2008,12,12,12,0,2,0,1,16.3203,-88.25478
Double H. Guest House,,,SouthEastern Coast ,,1994,6,6,7,1,1,0,0,,
Dream Valley Jungle Lodge,Cayo,Cayo,Western Belize ,Yes,2012,29,29,29,9,5,0,1,17.251338,-88.855673
Dreme Inn,Belize,Belize City,Central Coast Belize,Yes,2015,5,3,3,0,0,0,0,17.502079,-88.186819
D's Hostel,Stann Creek,Dangriga,SouthEastern Coast ,Yes,2006,3,3,12,0,2,0,0,16.905813,-88.219392
duPlooy’s Jungle Lodge,Cayo,Cayo,Western Belize ,Yes,1990,16,16,45,21,8,0,0,17.095579,-89.068963
Eastern Guest House,Cayo,Belmopan,Western Belize ,Yes,2003,7,7,7,1,1,0,0,17.243049,-88.778401
Easy Inn,Belize,Belize City,Central Coast Belize,Yes,2009,20,20,20,1,5,0,0,17.507877,-88.205311
Easy Living Apartments ,Stann Creek,Placencia,SouthEastern Coast ,Yes,2001,5,2,3,0,0,0,0,16.3055,-88.21584
Edith's Guest House,Belize,Caye Caulker,Northern Islands ,Yes,1970,4,4,5,0,0,0,0,,
El Castillo De Arena ,Belize,San Pedro,Nothern Islands,Yes,2006,5,4,6,1,0,0,0,17.980331,-87.92313
El Chiclero Inn,Belize,Belize Rural,Central Coast Belize,Yes,1996,6,6,12,0,1,0,0,17.335725,-88.24284
El Grand Mestizo,Orange Walk,Orange Walk,Northern Belize,Yes,2013,9,9,20,3,2,0,0,18.07139,-88.554598
El Pescador Lodge & Villas,Belize,San Pedro,Nothern Islands,Yes,1970,57,37,72,28,21,1,1,17.954156,-87.940247
El Rey Hotel,Cayo,Belmopan,Western Belize ,Yes,1990,12,12,25,4,6,0,0,17.255368,-88.767001
El Secreto Resort,Belize,San Pedro,Nothern Islands,Yes,2012,13,13,13,24,9,2,0,18.056202,-87.890871
Eloise Travel Lodge,Stann Creek,Placencia,SouthEastern Coast ,Yes,1997,9,6,9,0,1,0,0,16.515674,-88.368096
Escape Away Belize,Belize,San Pedro,Nothern Islands,Yes,2015,1,1,5,1,1,0,0,18.028848,-87.899059
Estrella Mare ,Stann Creek,Placencia,SouthEastern Coast ,Yes,2015,2,2,5,0,0,0,0,16.31465,-88.21416
Evan's Place,Stann Creek,Placencia,SouthEastern Coast ,Yes,2003,4,4,7,0,1,0,0,16.517789,-88.367549
Exotic Caye Beach Resort,Belize,San Pedro,Nothern Islands,No,1998,18,17,22,3,4,0,0,17.5442.51,-87.58112
Fairweather's Place,Stann Creek,Offshore South,SouthEastern Coast ,Yes,2005,5,4,4,1,0,0,0,16.535366,-88.03427
Falcon Hill Cabanas,Cayo,Cayo,Western Belize ,Yes,2014,2,2,2,0,0,0,0,,
Fantasy Isalnd Eco-Resort ,Stann Creek,Offshore South,SouthEastern Coast ,Yes,2012,3,3,6,3,3,0,0,16.867117,-88.123685
Fernando's Seaside Guest House,Corozal,Corozal,Northern Belize,Yes,1998,5,5,10,1,1,0,0,18.353362,-88.149098
Finca Villa,Stann Creek,Placencia,SouthEastern Coast ,Yes,2007,2,2,4,1,0,0,0,16.31584,-88.2135
Flomon's Guest House,Stann Creek,Hopkins,SouthEastern Coast ,Yes,2010,4,4,7,1,1,0,0,16.852107,-88.279733
Flores Villas ,Cayo,Cayo,Western Belize ,Yes,2005,7,5,8,1,2,0,0,,
Foresters Lodge,Cayo,Cayo,Western Belize ,Yes,2014,5,5,7,1,1,1,0,17.223609,-88.922523
French Louie Caye ,Stann Creek,Offshore South,SouthEastern Coast ,No,2006,2,1,4,1,1,0,0,16.30034,-88.14599
Frontier Inn,Toledo,Toledo,Southern Belize,Yes,1999,12,12,27,0,3,0,0,16.060202,-88.808221
Gaia Lodge,Cayo,Cayo,Western Belize ,Yes,2012,16,16,21,19,9,0,0,17.038614,-88.984428
Gami's Hotel,Orange Walk,Orange Walk,Northern Belize,Yes,2004,10,10,12,0,2,0,0,18.584,-88.33755
Garbutt's Lodge-Lime Caye,Toledo,Offshore South,SouthEastern Coast ,Yes,2013,8,8,27,2,2,0,0,16.060202,-88.163124
Garbutt's Lodge-Lime Caye,Toledo,Toledo,Southern Belize,Yes,2008,5,5,10,3,3,0,0,16.134988,-88.163124
Gentle's Cool Spot,Belize,Belize Rural,Central Coast Belize,Yes,1999,4,4,6,0,1,0,0,17.113934,-88.20035
Georgia Peach,Belize,Caye Caulker,Northern Islands ,Yes,2002,8,4,4,0,1,0,1,17.743626,-88.024136
Gibson Guest House,Corozal,Corozal,Northern Belize,Yes,2004,4,4,4,0,0,0,0,,
Gill's Cove,Stann Creek,Offshore South,SouthEastern Coast ,Yes,1997,7,7,7,1,0,0,0,,
Global Village,Belize,Belize Rural,Central Coast Belize,Yes,2005,40,40,40,1,4,1,1,17.546096,-88.287564
Glover's Atoll Island Lodge,Stann Creek,Offshore South,SouthEastern Coast ,Yes,1967,20,20,48,4,2,0,0,16.760592,-87.77404
Glover's Guesthouse,Stann Creek,Hopkins,SouthEastern Coast ,Yes,1996,10,10,20,1,1,0,0,16.828088,-88.299742
GM Suites Bed & Breakfast,Cayo,Cayo,Western Belize ,Yes,2015,5,4,5,0,0,0,0,17.260288,-88.760878
Golden Motel,Toledo,Toledo,Southern Belize,Yes,2006,10,10,10,1,1,0,0,16.101997,-88.818577
Golden Tree Hotel,Belize,Belize City,Central Coast Belize,Yes,2004,35,35,35,1,7,0,0,17.30345,-88.12225
Gonzalez Guest House,Orange Walk,Orange Walk,Northern Belize,Yes,1998,9,9,22,1,1,0,0,17.46547,-88.33299
Grace 's Hotel,Toledo,Toledo,Southern Belize,Yes,1992,18,17,29,0,2,0,0,16.100089,-88.802242
Grand Caribe Belize,Belize,San Pedro,Nothern Islands,Yes,2009,109,78,235,57,30,0,0,17.946466,-87.943198
Grand Colony Island Villas,Belize,San Pedro,Nothern Islands,Yes,2005,21,21,0,10,0,6,0,17.904925,-87.975314
Grand Paraiso Casa,Belize,San Pedro,Nothern Islands,Yes,2013,3,3,4,1,1,0,0,17.88522,-87.985701
Green Parrot Beach Houses,Stann Creek,Placencia,SouthEastern Coast ,Yes,1995,8,8,14,2,7,1,1,16.36553,-88.21128
Green Tower House ,Stann Creek,Placencia,SouthEastern Coast ,Yes,2015,3,3,4,0,0,0,0,,
Guest House Exotica,Belize,San Pedro,Nothern Islands,Yes,2015,3,3,3,1,1,0,0,17.54617,-87.5851
Gumbo Limbo,Belize,Caye Caulker,Northern Islands ,Yes,2008,2,2,2,0,0,0,0,17.441667,-88.013552
Gumbo Limbo Jungle Resort,Cayo,Cayo,Western Belize ,Yes,2007,5,5,13,2,3,0,0,17.167538,-88.975111
Habaru House,Stann Creek,Hopkins,SouthEastern Coast ,Yes,2014,5,5,7,1,1,0,0,16.50915,-88.17104
Hairy Hut,Stann Creek,Placencia,SouthEastern Coast ,Yes,2014,1,1,7,0,1,0,0,16.3414.79,-88.215512
Half Moon Caye Campground,Belize,Offshore North,Northern Islands ,Yes,2001,6,6,20,6,0,0,0,17.200102,-87.533301
Hamanasi Adventure & Dive  Resort,Stann Creek,Hopkins,SouthEastern Coast ,Yes,2000,50,25,34,73,44,2,2,16.842493,-88.273358
Happy Happy Inn,Cayo,Belmopan,Western Belize ,Yes,2011,3,3,3,1,1,0,0,17.163575,-88.441106
Harbor View Cottage (Applying),Belize,Belize City,Central Coast Belize,No,2016,1,1,1,1,1,0,0,17.293061,-88.105594
Harbour Hideaway,Stann Creek,Placencia,SouthEastern Coast ,Yes,2009,2,1,2,0,0,0,0,16.31156,-88.22223
Harry's Cozy Cabanas,Stann Creek,Placencia,SouthEastern Coast ,Yes,1997,6,5,6,1,1,0,0,16.511577,-88.368269
Hatchet Caye Resort ,Stann Creek,Offshore South,SouthEastern Coast ,Yes,2011,12,12,16,23,4,0,1,16.2801,-88.04102
Heaven's Gate Beach Cabanas,Stann Creek,Placencia,SouthEastern Coast ,Yes,2008,2,2,3,0,2,0,0,,
HFC Lodge ,Stann Creek,Placencia,SouthEastern Coast ,Yes,2015,5,5,15,0,2,0,0,16.3035.4,-88.221778
Hibiscus Cabana,Stann Creek,Hopkins,SouthEastern Coast ,Yes,2013,2,2,4,0,1,0,0,,
Hibiscus Hotel,Cayo,Cayo,Western Belize ,Yes,2011,6,6,7,0,1,0,0,17.251018,-88.774328
Hicklin House,Belize,San Pedro,Nothern Islands,Yes,2010,2,2,2,0,0,0,0,,
Hidden Valley Inn,Cayo,Cayo,Western Belize ,Yes,2001,12,12,18,24,15,1,1,17.049344,-88.899883
Hideaway Caye ,Stann Creek,Offshore South,SouthEastern Coast ,Yes,2011,1,1,1,1,0,0,0,16.682562,-88.191914
Hi-Et Guest House  ,Cayo,Cayo,Western Belize ,Yes,1978,13,10,15,0,0,0,0,17.158175,-89.070543
High Tide Guest House,Stann Creek,Placencia,SouthEastern Coast ,Yes,2015,4,3,6,1,0,0,1,16.33205,-88.21487
Highway Trail Resort,Belize,Belize Rural,Central Coast Belize,Yes,2014,5,5,6,2,0,2,0,,
Hilda's  Hotel,Orange Walk,Orange Walk,Northern Belize,Yes,2016,8,8,8,1,0,0,0,18.04217,-88.33482
Hill Bank Field Station,Orange Walk,Orange Walk,Northern Belize,Yes,1997,10,10,38,3,2,0,0,17.602581,-88.70048
Hode's Place,Cayo,Cayo,Western Belize ,Yes,2016,10,4,10,0,1,0,0,17.09455,-89.04102
Hok' ol' kin Guest House,Corozal,Corozal,Northern Belize,Yes,1996,11,11,22,3,3,0,0,18.389156,-88.388375
Hol Chan Reef Resort,Belize,San Pedro,Nothern Islands,Yes,2010,32,32,32,1,2,0,0,17.880143,-87.993006
Home Hill Apartments ,Cayo,Cayo,Western Belize ,Yes,2013,5,3,3,0,1,0,0,17.148624,-89.070086
Honey Camp Ranch,Orange Walk,Orange Walk,Northern Belize,Yes,2011,2,1,2,1,0,0,0,18.3111,-88.26719
Honey's Hotel,Belize,Belize City,Central Coast Belize,Yes,2015,18,15,18,1,1,0,0,17.304387,-88.125964
Hopkins Bay Belize,Stann Creek,Hopkins,SouthEastern Coast ,Yes,2010,57,54,57,26,18,0,0,16.877183,-88.28767
Hopkins Inn,Stann Creek,Hopkins,SouthEastern Coast ,Yes,1994,5,4,5,0,1,0,0,16.858327,-88.281862
Hostel La Vista,Belize,San Pedro,Nothern Islands,Yes,2014,14,13,44,1,3,0,0,17.919347,-87.962097
Hotel Central Park,Belize,San Pedro,Nothern Islands,Yes,2003,19,15,28,1,1,0,0,17.55065,-87.57455
Hotel De La Fuente,Orange Walk,Orange Walk,Northern Belize,Yes,2004,20,20,28,6,4,0,0,18.4931,-88.33559
Hotel Del Rio,Belize,San Pedro,Nothern Islands,Yes,1997,13,13,23,3,1,0,0,17.927899,-87.957781
Hotel El Pilar,Cayo,Cayo,Western Belize ,Yes,2009,14,13,33,2,1,0,0,17.16498,-89.110073
Hotel Hello,Stann Creek,Dangriga,SouthEastern Coast ,Yes,1994,34,17,25,0,2,0,0,16.537678,-88.418023
Hotel Maya,Corozal,Corozal,Northern Belize,Yes,1979,17,15,29,2,4,0,0,18.23065,-88.23369
Hotel Ocean Paradise,Belize,San Pedro,Nothern Islands,Yes,2016,14,14,24,1,1,0,0,17.920271,-87.961511
Hotel Posado Mama,Corozal,Corozal,Northern Belize,Yes,1988,9,9,10,0,2,0,0,18.3891,-88.393995
Hotel Tia Maria,Cayo,Cayo,Western Belize ,Yes,2008,9,9,13,1,1,0,0,17.160166,-89.071323
Howler House Vacation Rentals,Belize,Belize Rural,Central Coast Belize,Yes,2013,2,2,2,0,1,0,0,,
Howler Monkey Resort,Belize,Belize Rural,Central Coast Belize,Yes,2000,8,8,19,2,1,0,0,17.5545,-88.530936
Hugh Parkey's Belize Adventure Lodge,Belize,Offshore North,Northern Islands ,Yes,2004,16,16,38,14,8,0,0,17.245541,-88.040474
Hummingbird Cottages,Belize,Caye Caulker,Northern Islands ,Yes,2011,6,4,7,1,1,0,0,17.737071,-88.028197
Hummingbird House at Placencia Caye ,Stann Creek,Placencia,SouthEastern Coast ,Yes,2013,3,3,3,1,1,0,0,16.510085,-88.360056
Hummingbird Lodge & Hostel,Cayo,Cayo,Western Belize ,Yes,2004,24,12,12,1,1,0,0,17.04171,-88.35249
Hummingbird Suites,Belize,San Pedro,Nothern Islands,Yes,2015,8,8,9,1,1,0,0,,
Ignacio's Beach Cabins,Belize,Caye Caulker,Northern Islands ,Yes,1987,17,17,24,1,0,0,0,17.736834,-88.026224
Iguana House,Belize,San Pedro,Nothern Islands,Yes,2011,3,3,3,0,0,0,0,,
Iguana Reef Inn,Belize,Caye Caulker,Northern Islands ,Yes,1998,14,14,19,7,7,0,0,17.74559,-88.025351
Iguana Yard,Cayo,Cayo,Western Belize ,Yes,2015,4,4,4,1,0,0,0,17.153557,-89.068488
Imperius Rex ,Stann Creek,Placencia,SouthEastern Coast ,Yes,2014,5,3,3,0,0,0,0,16.30562,-88.21562
Indigo Beach Homes ,Belize,San Pedro,Nothern Islands,Yes,2010,15,9,34,3,2,0,0,17.97429,-87.926524
Indigo Pearl,Belize,Caye Caulker,Northern Islands ,Yes,2011,2,1,1,0,1,0,0,,
Inglewood Camping Grounds,Cayo,Cayo,Western Belize ,Yes,1999,0,0,0,1,0,0,0,,
Innies Guest House,Stann Creek,Hopkins,SouthEastern Coast ,Yes,2013,4,3,3,1,1,0,0,16.5127,-88.16857
Ionie's Bed & Breakfast,Belize,Belize Rural,Central Coast Belize,Yes,1999,5,5,5,0,1,0,0,,
Isla Bonita Yacht Club,Belize,San Pedro,Nothern Islands,No,2014,52,26,28,3,1,3,0,17.544284,-87.581104
Isla Marisol Resort,Stann Creek,Offshore South,SouthEastern Coast ,Yes,2002,16,16,28,12,10,0,0,16.425944,-87.505772
Island Adventures Campground,Stann Creek,Offshore South,SouthEastern Coast ,Yes,2007,12,12,19,5,2,0,0,,
Island Cheers ,Belize,Caye Caulker,Northern Islands ,Yes,2012,4,4,6,3,3,0,0,,
Island Magic Beach Resort,Belize,Caye Caulker,Northern Islands ,Yes,2010,20,20,24,5,7,0,0,17.4486,-88.0143
Itza Lodge- Long Caye Lighthouse Reef,Belize,Offshore North,Northern Islands ,Yes,2011,24,24,24,3,3,0,0,17.219616,-87.593282
IZE Cottages,Stann Creek,Offshore South,SouthEastern Coast ,Yes,1993,16,16,60,6,4,0,0,16.485587,-88.045756
J & R Guest House,Cayo,Cayo,Western Belize ,Yes,2003,8,7,8,0,1,0,0,17.156286,-89.070875
Jabiru Nest,Stann Creek,Hopkins,SouthEastern Coast ,Yes,2014,5,4,5,1,1,0,0,17.506715,-88.19209
Jacana inn,Belize,Belize Rural,Central Coast Belize,Yes,2016,10,10,10,1,1,0,0,17.775994,-88.542033
Jaguar Creek ,Cayo,Cayo,Western Belize ,Yes,2015,22,11,51,6,7,1,1,17.094212,-88.404916
Jaguar Morning Star Guest House,Belize,Caye Caulker,Northern Islands ,Yes,2001,2,2,3,1,1,0,0,17.73921,-88.026236
Jaguar Reef Lodge,Stann Creek,Hopkins,SouthEastern Coast ,Yes,1995,18,18,26,51,29,0,0,16.840271,-88.271592
Jan's Beach Cabana ,Stann Creek,Hopkins,SouthEastern Coast ,Yes,2013,1,1,1,0,0,0,0,,
Jan's Place,Belize,Caye Caulker,Northern Islands ,Yes,2004,17,17,17,4,2,0,0,17.747696,-88.023969
Jean's Place,Stann Creek,Offshore South,SouthEastern Coast ,Yes,2013,2,2,4,1,1,0,0,16.53534,-88.03411
Jeremiah's Inn,Belize,Caye Caulker,Northern Islands ,Yes,2001,7,7,9,0,1,0,0,17.747169,-88.023958
Jewel of Placencia,Stann Creek,Placencia,SouthEastern Coast ,,2009,3,1,2,1,1,0,0,,
Joe Jo's By The Reef,Stann Creek,Offshore South,SouthEastern Coast ,Yes,2015,11,11,16,1,1,0,0,16.535152,-88.034058
Joya Del Mar,Stann Creek,Placencia,SouthEastern Coast ,Yes,2007,3,3,6,1,1,0,0,,
Joyce & Franks' Bed & Breakfast,Stann Creek,Placencia,SouthEastern Coast ,Yes,2001,14,7,10,1,1,0,0,16.614318,-88.353542
Joyful Inn,Toledo,Toledo,Southern Belize,Yes,2008,19,19,34,0,1,0,0,16.102829,-88.803794
Juan's Guest House Caye Caulker,Belize,Caye Caulker,Northern Islands ,Yes,2015,8,6,16,1,0,0,1,17.740861,-88.024842
Julia's Guesthouse,Stann Creek,Placencia,SouthEastern Coast ,Yes,2002,8,8,12,1,3,0,0,16.519003,-88.367783
Jungle Jeanie's By The Sea,Stann Creek,Hopkins,SouthEastern Coast ,Yes,1995,10,10,20,5,3,0,0,16.846997,-88.275436
Ka'ana Boutique Resort ,Cayo,Cayo,Western Belize ,Yes,2006,17,17,22,40,19,3,1,17.122379,-89.100464
Kanantik Reef & Jungle Resort,Stann Creek,Stann Creek,SouthEastern Coast ,Yes,2002,44,22,24,32,12,12,1,16.4413,-88.18341
Kantara Ku Jungle Escape,Cayo,Belmopan,Western Belize ,Yes,2010,8,7,14,1,1,0,0,17.092911,-88.637089
Kat Kasa ,Stann Creek,Placencia,SouthEastern Coast ,Yes,2015,1,1,4,0,1,0,1,,
Kenmar’s Bed & Breakfast,Cayo,Cayo,Western Belize ,Yes,2004,10,10,14,0,2,0,0,17.25216,-88.764768
Kingdom of Caerus,Belize,Belize Rural,Central Coast Belize,Yes,2016,2,2,2,1,1,0,0,17.422341,-88.202648
Kiskadee Cove,Stann Creek,Placencia,SouthEastern Coast ,Yes,2014,1,1,1,1,1,0,0,,
Kismet Inn,Stann Creek,Hopkins,SouthEastern Coast ,Yes,2003,11,6,8,1,0,0,0,16.874065,-88.287248
Kokomo Beach,Belize,Caye Caulker,Northern Islands ,Yes,2003,2,2,3,0,1,0,0,17.743184,-88.02358
Kukulkan Villa,Cayo,Cayo,Western Belize ,Yes,2013,3,3,4,2,1,0,0,,
La  Caribe,Stann Creek,Placencia,SouthEastern Coast ,,2008,4,2,2,1,1,0,0,,
La Beliza Resort,Belize,San Pedro,Nothern Islands,Yes,2014,18,12,32,5,3,0,0,18.023374,-87.904136
La Casa Del Caballo Blanco,Cayo,Cayo,Western Belize ,Yes,2005,6,6,8,4,3,0,0,17.159198,-89.090431
"La Cubana Hostel, Sleep Box",Belize,Caye Caulker,Northern Islands ,Yes,2014,12,12,19,1,0,0,0,17.743551,-88.023472
La Enramada Cabanas,Orange Walk,Orange Walk,Northern Belize,Yes,2001,12,12,17,1,5,0,0,18.44,-88.3419
La Milpa Ecolodge and Research Station,Orange Walk,Orange Walk,Northern Belize,Yes,1997,14,14,54,3,2,0,0,17.841335,-89.018739
La Perla del Caribe,Belize,San Pedro,Nothern Islands,Yes,2006,9,9,37,6,0,0,0,17.59266,-87.55056
La Primavera Observation Station,Cayo,Cayo,Western Belize ,Yes,2014,5,4,16,0,0,1,0,17.080333,-89.064526
La Rosita Guest,Orange Walk,Orange Walk,Northern Belize,,2001,26,13,12,1,1,0,0,,
Lamanai Hotel,Orange Walk,Orange Walk,Northern Belize,Yes,2015,24,24,60,16,11,0,0,18.1762,-88.33522
Lamanai Riverside Retreat,Orange Walk,Orange Walk,Northern Belize,Yes,2003,5,5,5,0,2,0,0,18.4901,-88.33464
LamanaiOutpost Lodge,Orange Walk,Orange Walk,Northern Belize,Yes,1992,20,17,32,12,13,0,0,17.751811,-88.653921
Laru Beya Resort ,Stann Creek,Placencia,SouthEastern Coast ,Yes,2004,60,30,38,11,8,1,0,16.3326,-88.21461
Las Palmas Hotel,Corozal,Corozal,Northern Belize,No,2004,27,23,42,3,1,0,0,18.232278,-88.23206
Las Terrazas Resort,Belize,San Pedro,Nothern Islands,Yes,2008,39,35,111,44,26,1,0,17.965379,-87.930887
Las Vegas Executive Hotel,Corozal,Corozal,Northern Belize,Yes,2010,59,58,95,3,16,0,1,18.484287,-88.396696
Latitude 17 Degrees,Stann Creek,Hopkins,SouthEastern Coast ,Yes,2012,4,4,6,0,1,0,0,16.861442,-88.284362
Latitude Adjustments,Stann Creek,Hopkins,SouthEastern Coast ,Yes,2013,5,1,5,1,2,0,0,16.852134,-88.281079
Lebeha Cabanas,Stann Creek,Hopkins,SouthEastern Coast ,Yes,2006,8,8,13,0,0,0,0,,
Leeside Rooms,Belize,Caye Caulker,Northern Islands ,Yes,2004,6,3,5,0,1,0,1,17.744847,-88.025563
Lena's Guest House,Belize,Caye Caulker,Northern Islands ,No,1978,13,11,20,0,0,0,0,17.740851,-88.024255
Lewis Family Vacation Home ,Stann Creek,Stann Creek,SouthEastern Coast ,Yes,2008,3,3,4,1,1,0,0,,
Long Caye Adventure Camp,Stann Creek,Offshore South,SouthEastern Coast ,Yes,1996,16,16,22,10,4,2,1,16.452143,-87.465104
Lorraine's Guest House,Belize,Caye Caulker,Northern Islands ,Yes,1998,4,4,8,2,0,0,0,17.739559,-88.026046
Los Encantos Villas,Belize,San Pedro,Nothern Islands,Yes,1999,10,10,11,1,1,0,0,17.974698,-87.925806
Los Mangoes Rentals ,Stann Creek,Hopkins,SouthEastern Coast ,Yes,2014,2,2,4,1,1,0,0,16.871216,-88.287858
Los Porticos,Stann Creek,Placencia,SouthEastern Coast ,Yes,2008,48,22,22,6,5,0,0,16.533456,-88.360643
Lost Frontiers,Belize,Belize Rural,Central Coast Belize,No,2016,7,3,3,0,0,0,0,17.10561,-88.21114
Lost Reef Resort,Stann Creek,Placencia,SouthEastern Coast ,Yes,2007,5,5,6,4,3,0,0,16.413,-88.18414
Lost World Jungle Lodge,Stann Creek,Stann Creek,SouthEastern Coast ,Yes,2012,12,6,6,1,1,0,0,16.5548,-88.28505
Louise's Beach House,Belize,Caye Caulker,Northern Islands ,Yes,2015,13,13,12,3,2,1,2,,
Love Kiss Motel,Cayo,Belmopan,Western Belize ,Yes,2008,13,13,14,1,2,0,0,17.245406,-88.773668
Low Caye Cottages,Belize,Caye Caulker,Northern Islands ,Yes,2015,8,8,8,3,3,0,0,17.761146,-88.027805
Lower Dover Field Station,Cayo,Cayo,Western Belize ,Yes,2003,5,5,12,0,1,0,1,17.212979,-88.946177
Lucia's Guest House ,Orange Walk,Orange Walk,Northern Belize,Yes,2002,21,21,21,0,2,0,0,,
Luxury Beach House,Stann Creek,Placencia,SouthEastern Coast ,Yes,2010,3,3,5,1,1,0,0,16.39594,-88.1835
Lydia's Guest House,Stann Creek,Placencia,SouthEastern Coast ,Yes,1990,16,16,21,0,1,0,0,16.31153,-88.22083
M & N Hotel and Apartments,Belize,Caye Caulker,Northern Islands ,Yes,1996,10,10,18,0,2,0,0,,
Macaw Apartments Caye Caulker,Belize,Caye Caulker,Northern Islands ,Yes,2012,11,9,10,0,0,1,1,17.741871,-88.025874
Macaw Bank Jungle Lodge,Cayo,Cayo,Western Belize ,Yes,2006,13,6,14,4,1,0,0,17.092978,-89.066414
Macovy Blues Guesthouse ,Stann Creek,Placencia,SouthEastern Coast ,Yes,2003,3,2,3,0,0,0,0,16.31054,-88.22078
Mahogany Hall Resort,Cayo,Cayo,Western Belize ,No,2009,8,7,14,5,3,0,0,17.095959,-89.064354
Mahung's Inn Guesthouse,Toledo,Toledo,Southern Belize,Yes,1979,10,6,10,1,1,0,0,16.054687,-88.801982
Maison Blanche ,Stann Creek,Placencia,SouthEastern Coast ,Yes,2014,3,3,3,1,1,0,0,,
Mallorca Hotel,Cayo,Cayo,Western Belize ,Yes,2005,12,10,19,1,1,0,0,,
Mama Noots Eco Resort,Stann Creek,Stann Creek,SouthEastern Coast ,Yes,2012,13,13,24,14,14,0,0,16.49502,-88.23134
Mana-Kai Camping & Cabins,Cayo,Cayo,Western Belize ,Yes,2003,13,12,21,1,1,0,0,17.093938,-89.041106
Manatee Inn,Stann Creek,Placencia,SouthEastern Coast ,Yes,2000,8,6,12,0,0,0,0,16.521896,-88.369499
Manatee Lodge,Belize,Belize Rural,Central Coast Belize,Yes,1979,8,8,18,1,3,0,0,,
Manatee Place,Stann Creek,Hopkins,SouthEastern Coast ,Yes,2014,3,3,3,1,1,0,0,16.52196,-88.369576
Mangro Place ,Stann Creek,Placencia,SouthEastern Coast ,Yes,2011,4,2,4,1,1,0,0,16.535297,-88.392509
Maria Isabel Hotel,Orange Walk,Orange Walk,Northern Belize,Yes,2013,10,10,10,0,2,0,0,18.43785,-88.34222
Marin's Premier,Belize,Caye Caulker,Northern Islands ,Yes,2015,2,2,5,0,0,0,0,17.741483,-88.025232
Mariposa 1630,Stann Creek,Placencia,SouthEastern Coast ,Yes,2013,4,2,2,1,1,0,0,16.303495,-88.22188
Mariposa Bed & Breakfast,Stann Creek,Placencia,SouthEastern Coast ,Yes,2014,10,9,18,5,6,0,0,16.32077,-88.21372
Mariposa Jungle Lodge,Cayo,Cayo,Western Belize ,Yes,2007,7,7,14,11,6,0,0,17.087907,-88.984111
Mark's House,Belize,Caye Caulker,Northern Islands ,Yes,2014,1,1,2,3,3,0,0,,
Martha’s Guest House,Cayo,Cayo,Western Belize ,Yes,1993,16,16,25,5,6,0,0,17.157928,-89.070525
Martha's Hotel,Belize,San Pedro,Nothern Islands,Yes,1984,8,6,10,0,0,2,0,17.92,-87.962246
Martz Farm Treehouses & Cabanas,Cayo,Cayo,Western Belize ,Yes,1997,7,7,18,2,1,0,1,17.013659,-89.06539
Maruba Resort and Jungle Spa,Belize,Belize Rural,Central Coast Belize,Yes,1986,16,16,20,12,0,12,0,17.899227,-88.3293
Mata Chica Resort,Belize,San Pedro,Nothern Islands,Yes,2006,31,31,34,31,24,1,1,17.984182,-87.921135
Mata Rocks Resort,Belize,San Pedro,Nothern Islands,Yes,1992,17,17,20,3,7,0,0,17.904078,-87.975902
Maxhapan Cabins,Belize,Caye Caulker,Northern Islands ,Yes,2004,3,3,6,0,0,0,0,17.740347,-88.025834
Maxim’s Palace,Cayo,Cayo,Western Belize ,Yes,1994,10,10,22,1,1,0,0,17.075699,-89.139497
Maya Breeze Hotel,Stann Creek,Placencia,SouthEastern Coast ,Yes,2004,10,9,12,25,24,1,1,16.614385,-88.354136
Maya Breeze Inn,Stann Creek,Placencia,SouthEastern Coast ,Yes,1999,9,9,17,2,0,1,0,16.36524,-88.21136
Maya Dream Beach House,Stann Creek,Placencia,SouthEastern Coast ,No,2007,4,2,4,1,1,0,0,16.32058,-88.21376
Maya Hotel  ,Cayo,Cayo,Western Belize ,Yes,1985,16,16,15,0,0,0,0,17.500782,-89.191883
Maya Lodge,Stann Creek,Placencia,SouthEastern Coast ,Yes,2004,2,2,5,0,0,0,0,16.620389,-88.352666
Maya Moon Cottage,Stann Creek,Placencia,SouthEastern Coast ,Yes,2006,1,1,1,2,2,0,0,,
Maya Mountain Lodge,Cayo,Cayo,Western Belize ,Yes,1981,16,16,40,12,11,0,0,17.150695,-89.058486
Maya Sunset Rental,Stann Creek,Placencia,SouthEastern Coast ,Yes,2009,2,2,2,1,1,0,0,16.600477,-88.356625
Maya Vista,Cayo,Cayo,Western Belize ,Yes,2016,7,7,7,2,1,0,0,17.0544,-89.07329
Maya World Guest House,Corozal,Corozal,Northern Belize,Yes,2006,8,7,8,0,1,0,0,18.233606,-88.231108
Mayan Islands,Belize,San Pedro,Nothern Islands,No,2012,9,5,9,4,1,0,0,17.543212,-87.593172
Mayan Princess Hotel,Belize,San Pedro,Nothern Islands,Yes,1992,23,20,26,5,7,0,0,17.920327,-87.961055
Mayatopia,Stann Creek,Placencia,SouthEastern Coast ,Yes,2015,2,2,2,1,1,0,0,16.37,-88.2113
Mellow Yellow Cabana,Stann Creek,Hopkins,SouthEastern Coast ,Yes,2015,2,2,2,1,0,0,0,16.51438,-88.1701
Merry Yacht C.A.S.A,Belize,San Pedro,Nothern Islands,Yes,2015,4,2,5,1,1,1,1,,
Mi Sastun,Stann Creek,Placencia,SouthEastern Coast ,Yes,2006,3,3,4,1,1,0,0,,
Michelo Suites ,Stann Creek,Placencia,SouthEastern Coast ,Yes,2007,4,4,4,0,1,0,0,16.521794,-88.370311
Midas Resort ,Cayo,Cayo,Western Belize ,Yes,1999,40,40,73,8,7,0,0,17.164573,-89.070253
Miller's Landing,Stann Creek,Placencia,SouthEastern Coast ,Yes,1999,7,5,10,1,1,0,0,16.33185,-88.21419
Miracle Hotel,Corozal,Corozal,Northern Belize,Yes,2008,7,7,11,2,2,0,0,18.230955,-88.234835
Mirador Hotel,Corozal,Corozal,Northern Belize,Yes,2006,24,24,44,2,3,0,0,17.154082,-88.852018
Miramar Apartments,Stann Creek,Placencia,SouthEastern Coast ,Yes,2002,15,13,19,1,2,0,0,16.51991,-88.367975
Miramar Villas,Belize,San Pedro,Nothern Islands,Yes,2007,12,4,10,2,1,0,0,17.88984,-87.981525
Mirasol Villa,Stann Creek,Placencia,SouthEastern Coast ,Yes,2007,3,3,4,1,1,0,0,16.30558,-88.21572
Mohito Coast Beach House,Stann Creek,Placencia,SouthEastern Coast ,No,2013,5,3,4,2,0,0,0,16.35573,-88.21224
Monkey Bay Wildlife Sanctuary,Belize,Belize Rural,Central Coast Belize,Yes,1994,21,18,53,11,19,1,1,17.319152,-88.568019
Moonracer Farm Lodge,Cayo,Cayo,Western Belize ,Yes,2008,5,5,8,1,1,0,0,17.085142,-88.982355
Morgan's inn,Belize,Caye Caulker,Northern Islands ,Yes,1997,4,2,3,0,0,0,0,17.740625,-88.024787
Mountain Equestrain Trails,Cayo,Cayo,Western Belize ,Yes,1990,10,10,27,5,3,0,0,17.098506,-88.965201
Mr Craig's Place,Belize,San Pedro,Nothern Islands,Yes,2011,2,1,1,0,0,0,0,,
Nabitunich-The Stone Cottages  ,Cayo,Cayo,Western Belize ,Yes,1986,14,14,19,1,2,0,0,17.077494,-89.138449
Nature Resort,Belize,Belize Rural,Central Coast Belize,Yes,1998,11,11,21,1,1,0,0,,
Nature's Way Guest House,Toledo,Toledo,Southern Belize,Yes,1988,8,8,13,0,0,0,0,16.09467,-88.482102
Nikolai's Place,Stann Creek,Placencia,SouthEastern Coast ,No,2015,16,8,8,1,1,0,0,16.30361,-88.22151
Nuuk Cheil Cottage,Stann Creek,Stann Creek,SouthEastern Coast ,Yes,1994,9,9,22,2,2,0,0,16.798537,-88.385479
Oasi Apartment Rentals,Belize,Caye Caulker,Northern Islands ,Yes,2006,4,4,8,0,1,0,0,17.73625,-88.02809
Oasis del Caribe Unit #4 & # 15,Belize,San Pedro,Nothern Islands,Yes,2008,5,5,6,0,0,0,0,17.92554,-87.96097
Oasis Guest House,Corozal,Corozal,Northern Belize,Yes,2005,2,2,5,1,1,0,0,18.210958,-88.085806
Ocean Pearle Royale Hotel,Belize,Caye Caulker,Northern Islands ,Yes,2002,28,14,23,1,1,0,0,17.748505,-88.024186
Ocean Tide Beach Resort ,Belize,San Pedro,Nothern Islands,Yes,2014,11,11,18,3,3,0,0,17.925054,-87.958846
Oceanaire Condos 1 & 9,Belize,San Pedro,Nothern Islands,Yes,2010,4,4,4,1,1,0,0,17.921368,-87.961086
Ocean's Edge Beach Houses,Stann Creek,Placencia,SouthEastern Coast ,Yes,2003,2,2,2,1,0,0,0,,
Octopus Garden ,Stann Creek,Placencia,SouthEastern Coast ,,2013,8,4,4,0,1,0,0,,
Off the Wall Dive Center,Stann Creek,Offshore South,SouthEastern Coast ,Yes,2003,15,10,16,8,3,0,0,16.75918,-87.797304
Omar's Guest House,Stann Creek,Placencia,SouthEastern Coast ,Yes,2002,4,4,4,1,1,0,0,16.515637,-88.366388
One Particular Harbour,Stann Creek,Placencia,SouthEastern Coast ,Yes,2014,3,3,3,1,1,0,0,,
One World Rentals,Stann Creek,Placencia,SouthEastern Coast ,Yes,2005,15,11,15,0,1,0,0,16.514329,-88.366707
Orchid Bay Beach Club Casitas,Corozal,Corozal,Northern Belize,Yes,2012,21,21,28,3,3,1,0,18.326543,-88.328686
Orchid Garden Eco-Village,Belize,Belize Rural,Central Coast Belize,Yes,2005,16,13,20,4,4,0,0,17.275588,-88.230384
Orchid Palm Inn,Orange Walk,Orange Walk,Northern Belize,Yes,2006,8,8,14,2,3,0,0,18.081989,-88.560461
Pacz Guest House,Cayo,Cayo,Western Belize ,Yes,1993,5,5,9,0,2,0,0,17.158783,-89.070244
Palm Cove Cabins,Stann Creek,Hopkins,SouthEastern Coast ,Yes,2005,4,4,6,3,4,0,0,16.51468,-88.17022
Palmento Grove,Stann Creek,Hopkins,SouthEastern Coast ,Yes,2008,4,4,7,2,2,0,0,16.867686,-88.288771
Pal's Guest House,Stann Creek,Dangriga,SouthEastern Coast ,Yes,1988,12,10,22,2,2,0,0,16.962523,-88.219472
Pancho's Villas,Belize,Caye Caulker,Northern Islands ,No,2007,11,9,14,0,1,0,0,17.44883,-88.01432
Paradise Vacation Hotel,Stann Creek,Placencia,SouthEastern Coast ,Yes,2001,17,16,18,5,9,0,0,16.511537,-88.368039
Paradise Villas- Nellie Gomez,Belize,San Pedro,Nothern Islands,Yes,1991,32,32,75,6,10,0,0,17.922831,-87.959518
Park Place Belize,Belize,San Pedro,Nothern Islands,Yes,2016,14,14,14,4,5,0,0,17.554767,-87.572792
Parky's Place,Belize,Caye Caulker,Northern Islands ,Yes,2014,9,9,13,3,3,0,0,,
Parrot Cove Lodge,Stann Creek,Hopkins,SouthEastern Coast ,Yes,2005,18,16,20,2,4,0,0,16.838482,-88.270027
Parrot Nest,Cayo,Cayo,Western Belize ,Yes,1996,9,9,17,0,4,0,0,17.174144,-89.108263
PAUSE,Belize,Caye Caulker,Northern Islands ,Yes,2016,5,5,30,0,0,0,0,17.444034,-88.013198
Pearl Beach Dome House,Stann Creek,Placencia,SouthEastern Coast ,Yes,2012,4,4,5,1,0,0,0,,
Pedro's Inn,Belize,San Pedro,Nothern Islands,Yes,2003,50,50,100,38,5,0,0,17.5452,-87.58075
Pelican Beach Resort,Stann Creek,Dangriga,SouthEastern Coast ,Yes,1971,36,18,38,25,28,0,0,16.981518,-88.225802
Pelican Perch,Stann Creek,Placencia,SouthEastern Coast ,Yes,2015,3,3,4,1,1,0,0,,
Pelican Reef  Villas,Belize,San Pedro,Nothern Islands,No,2005,46,23,53,7,11,0,0,17.53148,-87.590174
Pelican's Pouch,Stann Creek,Offshore South,SouthEastern Coast ,Yes,2006,21,21,45,9,10,0,0,16.485224,-88.045586
Picololo Studio Apartments,Belize,Caye Caulker,Northern Islands ,Yes,2006,3,3,5,0,0,0,0,17.727824,-88.027936
Pilgrim's Paradise,Cayo,Cayo,Western Belize ,Yes,2016,2,2,3,1,1,0,0,17.1002,-89.02322
Pine Ridge Lodge,Cayo,Cayo,Western Belize ,Yes,1992,10,4,7,2,1,0,0,17.048235,-88.949463
Pirate Villas,Belize,San Pedro,Nothern Islands,Yes,2010,2,2,2,0,1,0,0,17.9364,-87.952064
Pirates Lair,Belize,Caye Caulker,Northern Islands ,Yes,2015,2,1,2,1,1,0,0,,
Placencia Beach Club Rentals ,Stann Creek,Placencia,SouthEastern Coast ,Yes,2011,2,2,3,0,0,0,0,16.521969,-88.370412
Placencia Cabanas,Stann Creek,Placencia,SouthEastern Coast ,Yes,2003,3,2,2,0,0,0,1,16.521219,-88.368556
Placencia Guest House,Stann Creek,Placencia,SouthEastern Coast ,Yes,2014,2,1,2,1,1,0,0,16.321847,-88.214438
Placencia Pointe Townhomes,Stann Creek,Placencia,SouthEastern Coast ,Yes,2014,12,12,12,1,1,0,0,16.303396,-88.221992
Playa Blanca Island Villas,Belize,San Pedro,Nothern Islands,Yes,2009,3,3,5,2,1,0,0,17.986633,-87.920074
Plaza Hotel,Cayo,Cayo,Western Belize ,Yes,1990,7,7,14,0,1,0,0,,
Ponciana Villa ,Stann Creek,Placencia,SouthEastern Coast ,Yes,2015,2,2,2,1,1,0,0,,
Pook’s Hill ,Cayo,Cayo,Western Belize ,Yes,1996,11,11,18,9,8,0,0,17.1541,-88.85202
Popeye's Beach Resort,Belize,Caye Caulker,Northern Islands ,Yes,2001,19,18,28,3,3,0,0,17.741898,-88.023643
Portofino Beach Resort,Belize,San Pedro,Nothern Islands,Yes,2001,17,17,21,21,9,0,0,17.59431,-87.55048
Possum Point,Stann Creek,Stann Creek,SouthEastern Coast ,Yes,2011,0,0,18,1,3,0,0,17.031,-88.17082
Princess Hotel,Corozal,Corozal,Northern Belize,Yes,2004,100,50,66,7,10,1,1,18.484853,-88.396354
Pristine Cove,Belize,San Pedro,Nothern Islands,Yes,2013,4,4,7,1,2,0,0,17.5248,-88.00115
Pura Vida Inn,Belize,Caye Caulker,Northern Islands ,Yes,2012,5,5,5,2,0,0,0,17.741208,-88.024118
Quichpan Luum Cabanas,Toledo,Toledo,Southern Belize,Yes,2009,4,3,4,1,1,0,0,16.18937,-88.906441
Ra Xih Tzuel Maya Lodge,Toledo,Toledo,Southern Belize,Yes,2015,2,2,5,0,0,0,0,16.174103,-88.57156
Radisson Fort George Hotel,Belize,Belize City,Central Coast Belize,Yes,1953,102,102,147,90,108,0,0,17.492938,-88.181636
Rainbow Hotel,Belize,Caye Caulker,Northern Islands ,Yes,1997,12,12,23,0,0,0,0,17.745877,-88.023713
Rainforest Haven Inn,Cayo,Cayo,Western Belize ,Yes,2011,7,7,14,0,2,0,0,17.156295,-89.070569
Ramada Belize City Princess ,Belize,Belize City,Central Coast Belize,Yes,2013,360,160,262,60,76,2,0,17.30275,-88.11315
Ramon's Village,Belize,San Pedro,Nothern Islands,Yes,1981,71,71,109,47,17,0,1,17.915509,-87.965419
Ranguana Caye Cabins,Stann Creek,Offshore South,SouthEastern Coast ,No,2002,3,3,6,11,5,1,1,16.19556,-88.09047
Ranguana Lodge,Stann Creek,Placencia,SouthEastern Coast ,Yes,1990,5,5,10,1,4,0,0,16.519184,-88.367528
Ransoms Seaside Garden,Stann Creek,Hopkins,SouthEastern Coast ,Yes,1991,4,2,3,1,1,0,0,,
Raul's Rooms,Belize,Caye Caulker,Northern Islands ,Yes,1995,2,2,4,1,1,0,0,17.739875,-88.026325
Rawspa Cabanas & Campground,Cayo,Cayo,Western Belize ,No,2014,10,5,10,1,2,0,0,17.102337,-89.063266
Reef Conservation International ( REEFCI),Stann Creek,Offshore South,SouthEastern Coast ,Yes,2005,11,11,18,6,3,0,0,16.111964,-88.135716
Reef House-RF Rentals,Belize,Caye Caulker,Northern Islands ,Yes,2006,4,4,4,0,1,0,0,17.736556,-88.027795
Reef's End Lodge,Stann Creek,Offshore South,SouthEastern Coast ,Yes,1988,8,7,14,2,3,1,0,16.897971,-88.085192
Renaissance Towers,Belize,Belize City,Central Coast Belize,Yes,2007,24,20,40,8,3,0,0,17.30883,-88.11218
Reva's Pearl Vacation Home,Stann Creek,Placencia,SouthEastern Coast ,Yes,2011,2,2,3,1,1,0,0,,
River House Lodge,Stann Creek,Hopkins,SouthEastern Coast ,Yes,2004,6,5,10,1,1,0,0,16.4956,-88.17333
River Lane Cottage,Cayo,Cayo,Western Belize ,Yes,2015,1,1,1,1,1,0,0,,
River Park Inn,Cayo,Cayo,Western Belize ,Yes,2012,8,8,8,0,2,0,0,17.165169,-89.070014
Riverbend Bed & Breakfast,Belize,Belize Rural,Central Coast Belize,Yes,1995,4,4,8,1,0,0,0,17.321965,-88.172338
Riverside Resort Cabanas,Cayo,Cayo,Western Belize ,Yes,1996,3,3,8,0,1,0,0,17.171901,-89.108717
Roaring Creek Golf & Accommodations,Cayo,Cayo,Western Belize ,Yes,2009,5,5,5,4,6,0,0,17.233213,-88.797761
Robert's Caye Cabanas,Stann Creek,Offshore South,SouthEastern Coast ,No,2004,8,4,8,1,1,0,0,16.600702,-88.183851
Robert's Grove Beach Resort,Stann Creek,Placencia,SouthEastern Coast ,Yes,1997,72,72,72,60,33,6,1,16.526805,-88.364592
Rolson Hotel,Cayo,Cayo,Western Belize ,Yes,2005,20,20,37,1,12,0,0,17.148326,-89.080668
Rooms 4 U 2,Cayo,Cayo,Western Belize ,Yes,2012,4,2,4,0,0,0,0,,
Rosa’s Hotel,Cayo,Cayo,Western Belize ,Yes,1997,14,14,28,1,2,0,0,17.157396,-89.070076
Royal Belize Vacations,Stann Creek,Offshore South,SouthEastern Coast ,Yes,2010,5,5,5,12,4,0,0,16.823654,-88.100277
Royal Caribbean Resort  ,Belize,San Pedro,Nothern Islands,Yes,2005,42,42,49,4,3,0,0,17.535405,-87.583666
Royal Palm Resort,Belize,Offshore North,Northern Islands ,Yes,2008,10,10,10,8,3,0,1,17.56659,-88.070257
Royal Palm Villas,Belize,San Pedro,Nothern Islands,No,1996,17,10,11,2,3,0,0,17.903606,-87.975673
Ruby's Hotel,Belize,San Pedro,Nothern Islands,Yes,2003,26,13,20,1,1,0,0,17.917484,-87.962974
Rumors Resort Hotel,Cayo,Cayo,Western Belize ,Yes,2001,13,11,18,8,5,0,0,17.129613,-89.09447
Ruthie's Cabanas,Stann Creek,Dangriga,SouthEastern Coast ,Yes,2001,4,4,7,0,1,0,0,,
Sabal Beach,Toledo,Toledo,Southern Belize,Yes,2011,4,2,4,3,0,0,0,16.053564,-88.323768
Sailfish Hotel,Stann Creek,Placencia,SouthEastern Coast ,Yes,2015,15,15,32,2,1,1,1,16.510786,-88.371051
San Ignacio Resort Hotel ,Cayo,Cayo,Western Belize ,Yes,1976,26,26,39,28,26,0,0,17.153569,-89.068735
San Pedrano Guest House,Belize,San Pedro,Nothern Islands,Yes,1994,5,5,8,0,1,0,0,17.920794,-87.960912
San Pedro Holiday Inn,Belize,San Pedro,Nothern Islands,Yes,1965,16,16,34,4,6,0,0,17.918093,-87.962864
Sand Garden Rooms ,Stann Creek,Placencia,SouthEastern Coast ,Yes,2015,2,2,2,0,0,0,0,,
Sandbar Beachfront Hostel,Belize,San Pedro,Nothern Islands,Yes,2014,6,6,36,6,5,0,1,17.923361,-87.959343
Sandpipper Cabins,Stann Creek,Hopkins,SouthEastern Coast ,Yes,2015,3,3,5,1,1,0,0,16.52131,-88.17109
Sandy Beach,Stann Creek,Hopkins,SouthEastern Coast ,Yes,1993,3,3,3,1,2,0,0,16.51053,-88.16436
Sandy Lane Guest House & Cabanas,Belize,Caye Caulker,Northern Islands ,Yes,1984,15,15,23,0,1,0,0,17.744892,-88.024293
Sapphire Beach Resort ,Belize,San Pedro,Nothern Islands,Yes,2011,35,35,35,5,3,0,0,18.035497,-87.89627
Sapphire House ,Belize,Caye Caulker,Northern Islands ,Yes,2006,2,2,3,1,1,0,0,17.761158,-88.02774
Sarkiki Reef Resort,Stann Creek,Stann Creek,SouthEastern Coast ,Yes,2008,29,29,29,7,2,0,0,16.817806,-88.262709
Scotty's Bay Inn,Corozal,Corozal,Northern Belize,Yes,2015,8,7,9,0,1,1,0,18.393044,-88.382413
Sea Breeze Guest House,Belize,Belize City,Central Coast Belize,Yes,2009,9,9,12,1,1,0,0,17.29462,-88.11014
Sea Dreams Hotel ,Belize,Caye Caulker,Northern Islands ,Yes,2009,11,11,15,2,8,0,0,17.749323,-88.024812
Sea Glass Cottage,Toledo,Toledo,Southern Belize,Yes,2007,2,2,2,2,2,0,0,16.102317,-88.482874
Sea Glass Inn,Stann Creek,Placencia,SouthEastern Coast ,Yes,2012,6,6,11,0,1,0,0,16.512631,-88.366732
Sea Pearl Vacation Suites,Belize,San Pedro,Nothern Islands,Yes,2015,4,4,4,1,1,0,0,17.544366,-87.581656
Sea The View,Belize,San Pedro,Nothern Islands,Yes,2015,8,8,8,1,1,0,0,17.524585,-88.002026
Seabeezzz,Belize,Caye Caulker,Northern Islands ,Yes,1989,6,6,8,0,0,0,0,17.442255,-88.012932
Seabreeze Villa,Stann Creek,Placencia,SouthEastern Coast ,Yes,2013,3,3,4,1,1,0,0,16.519176,-88.367857
SEAcluded Sands,Belize,San Pedro,Nothern Islands,Yes,2006,2,2,2,3,0,0,0,17.937461,-87.961173
Seagrapes Cabana,Stann Creek,Hopkins,SouthEastern Coast ,Yes,2015,1,1,1,0,0,0,1,16.820627,-88.265089
Seagull's Nest Guest House,Stann Creek,Hopkins,SouthEastern Coast ,Yes,1998,6,6,6,1,1,0,0,16.855976,-88.280804
Seascape Vacation Rentals,Stann Creek,Hopkins,SouthEastern Coast ,Yes,2016,2,2,3,1,1,0,0,16.51557,-88.171544
Seascape Villas,Belize,San Pedro,Nothern Islands,Yes,2006,4,4,18,5,4,0,0,17.574955,-87.555698
Seaside Cabanas,Belize,Caye Caulker,Northern Islands ,Yes,2003,17,17,24,4,8,0,0,17.742572,-88.023746
Seaside Casa,Belize,San Pedro,Nothern Islands,Yes,2012,1,1,3,1,0,0,0,17.52325,-88.01079
Seaside Villas,Belize,Caye Caulker,Northern Islands ,Yes,2007,5,5,12,1,1,0,0,17.4485,-88.0143
Seaspray Hotel,Stann Creek,Placencia,SouthEastern Coast ,Yes,1998,21,21,35,1,9,0,0,16.519226,-88.367629
Seaview Suites,Stann Creek,Placencia,SouthEastern Coast ,Yes,2011,9,9,14,2,1,0,0,16.514956,-88.36572
Seiri Del Mar ,Stann Creek,Hopkins,SouthEastern Coast ,Yes,2014,19,9,19,8,3,0,0,16.877562,-88.287973
Serenade Hotel,Stann Creek,Placencia,SouthEastern Coast ,Yes,2014,18,18,18,1,1,0,0,16.517243,-88.367444
Serenity Sands Bed & Breakfast,Corozal,Corozal,Northern Belize,Yes,2008,5,5,8,3,1,0,0,18.413797,-88.343167
Seven Seas Resort,Belize,San Pedro,Nothern Islands,Yes,1988,12,9,18,2,2,0,0,17.55532,-87.57532
Shebeen ,Stann Creek,Placencia,SouthEastern Coast ,Yes,2014,3,3,2,1,1,0,0,,
Shell-Ease by the Sea ,Belize,San Pedro,Nothern Islands,Yes,2014,2,2,2,1,0,0,0,,
Shirley's Guest House,Belize,Caye Caulker,Northern Islands ,Yes,1979,1,1,1,0,0,0,0,17.762485,-88.004603
Siesta Inn,Belize,Belize City,Central Coast Belize,No,2007,17,17,17,1,1,0,0,17.513726,-88.22236
Silver Leaf Villa & Cabana,Stann Creek,Placencia,SouthEastern Coast ,Yes,2008,2,2,7,0,0,0,0,,
Simbert Apartments,Stann Creek,Placencia,SouthEastern Coast ,No,2014,2,2,2,0,0,1,1,16.36383,-88.21186
Singing Sands Inn,Stann Creek,Placencia,SouthEastern Coast ,Yes,2009,11,10,16,14,2,0,0,16.607827,-88.353319
Sirmoor Hill Farm Bed and Breakfast,Toledo,Toledo,Southern Belize,Yes,2009,3,2,2,2,0,0,0,,
Sittee River Lodge,Stann Creek,Stann Creek,SouthEastern Coast ,Yes,2005,2,2,2,0,0,0,0,,
Sleeping Giant Rainforest Lodge,Cayo,Cayo,Western Belize ,Yes,2011,25,24,25,19,18,0,0,17.107959,-88.665516
Sol Spot Unit H-5 @ Casa Del Sol,Belize,San Pedro,Nothern Islands,Yes,2015,2,2,3,0,0,0,0,17.554255,-87.574
Solaria Villas,Belize,San Pedro,Nothern Islands,Yes,2009,13,13,15,1,0,0,0,17.57575,-87.55493
Solutions Guest House ,Stann Creek,Hopkins,SouthEastern Coast ,Yes,2013,6,5,5,1,0,0,0,,
Sophie's Guest Rooms,Belize,Caye Caulker,Northern Islands ,Yes,2008,5,5,10,0,2,0,0,17.44572,-88.01292
Sopilar Campground,Cayo,Cayo,Western Belize ,Yes,2011,2,2,5,1,1,0,0,17.142384,-89.08388
South Waters Resort,Stann Creek,Placencia,SouthEastern Coast ,Yes,1999,7,7,9,3,3,0,0,16.512305,-88.366933
Southern Shores Resort,Stann Creek,Placencia,SouthEastern Coast ,Yes,2016,7,7,7,2,2,0,0,16.512457,-88.36662
Sozo House,Stann Creek,Hopkins,SouthEastern Coast ,Yes,2014,2,2,8,0,0,0,0,16.50179,-88.16053
Spanish Creek Rainforest Reserve,Belize,Belize Rural,Central Coast Belize,Yes,2007,5,4,14,4,1,0,1,17.537905,-88.627138
Spindrift Hotel,Belize,San Pedro,Nothern Islands,Yes,1982,26,24,42,2,4,0,0,17.919029,-87.962246
St. Charles Inn,Toledo,Toledo,Southern Belize,Yes,1984,12,12,20,2,3,0,0,16.208768,-88.802827
St. Christopher’s Hotel,Orange Walk,Orange Walk,Northern Belize,No,1997,21,21,41,2,4,0,0,18.082526,-88.559299
St. George's Caye Resort ,Belize,Offshore North,Northern Islands ,Yes,2008,19,12,12,18,4,1,0,17.553838,-88.072929
Stella De Mare ,Belize,San Pedro,Nothern Islands,Yes,2010,4,4,4,1,1,0,0,,
Sueno del Mar,Belize,San Pedro,Nothern Islands,Yes,2006,62,31,94,13,5,3,0,18.088437,-87.875517
Sugar Patch Inn ,Stann Creek,Hopkins,SouthEastern Coast ,Yes,2015,4,4,3,1,2,0,0,16.51046,-88.16457
Sun Breeze Hotel,Belize,San Pedro,Nothern Islands,Yes,1977,43,43,74,12,16,0,0,17.91714,-87.963302
Sun Creek  Lodge,Toledo,Toledo,Southern Belize,Yes,2004,6,6,12,0,1,0,0,16.105697,-88.918786
Sun Moon Star Motel,Cayo,Belmopan,Western Belize ,Yes,2013,4,4,4,1,0,0,0,17.142044,-88.454018
Sunbreeze Suites,Belize,San Pedro,Nothern Islands,Yes,2008,20,19,20,4,6,0,0,17.921289,-87.960575
Sundiver Beach Resort,Belize,San Pedro,Nothern Islands,Yes,2009,12,12,20,3,6,0,0,17.977999,-87.924311
Sundowner Lodge,Stann Creek,Placencia,SouthEastern Coast ,Yes,2014,4,4,5,0,2,0,0,16.305657,-88.220412
Sunrise Cabana,Stann Creek,Hopkins,SouthEastern Coast ,Yes,2013,4,2,2,0,0,1,0,16.49417,-88.15968
Sunset Lagoon Cabanas,Stann Creek,Placencia,SouthEastern Coast ,Yes,2015,1,1,1,1,1,0,0,,
Sunset Pointe Condominiums,Stann Creek,Placencia,SouthEastern Coast ,Yes,2006,14,14,49,1,0,0,0,16.30333,-88.22235
Sweet Dreams Garden,Cayo,Belmopan,Western Belize ,Yes,2012,6,6,5,0,1,1,0,17.14262,-88.464678
T.R.E.E.S Hosting Center ,Stann Creek,Stann Creek,SouthEastern Coast ,Yes,2013,14,7,33,2,3,1,1,16.320707,-88.3356
Table Rock Jungle Lodge,Cayo,Cayo,Western Belize ,Yes,2007,9,9,18,12,9,3,1,17.06539,-89.034468
Tania's Guest House,Stann Creek,Hopkins,SouthEastern Coast ,Yes,1998,7,7,13,1,1,0,0,16.85648,-88.281974
Tara Del Sol,Belize,San Pedro,Nothern Islands,Yes,2005,10,8,24,1,1,0,0,17.892478,-87.979311
Tarpon Caye Lodge,Stann Creek,Offshore South,SouthEastern Coast ,Yes,2000,3,3,3,0,0,0,0,16.585758,-88.145472
Tates Guest House,Toledo,Toledo,Southern Belize,Yes,1991,5,4,5,0,0,0,0,16.096355,-88.805949
Thatch Caye Resort ,Stann Creek,Offshore South,SouthEastern Coast ,Yes,2008,14,14,42,20,8,0,0,16.885341,-88.119113
The Arches,Stann Creek,Placencia,SouthEastern Coast ,Yes,2008,2,1,2,0,0,0,0,16.311984,-88.221484
The Bakadeer Inn,Belize,Belize City,Central Coast Belize,Yes,1999,12,12,23,1,1,0,0,17.501027,-88.19172
The Bunk House,Toledo,Toledo,Southern Belize,Yes,2016,2,2,16,1,1,0,0,,
The Caribbean Palms Inn,Belize,Belize City,Central Coast Belize,Yes,2004,13,10,24,0,2,0,0,17.492633,-88.186764
The Crimison Orchid Inn,Corozal,Corozal,Northern Belize,Yes,2011,11,9,11,0,1,0,0,18.326429,-88.328957
The Farm Inn,Toledo,Toledo,Southern Belize,Yes,2011,7,7,11,3,1,0,0,16.236679,-89.042044
The Flamboyant Tree,Stann Creek,Placencia,SouthEastern Coast ,Yes,2009,4,3,4,0,0,0,0,16.514446,-88.365396
The French Lady Guest House,Belize,Caye Caulker,Northern Islands ,Yes,2015,6,3,3,0,1,1,1,,
The Funky Do Do Backpackers,Stann Creek,Hopkins,SouthEastern Coast ,Yes,2011,9,9,30,2,2,0,0,16.86268,-88.284236
The Glass House,Belize,Caye Caulker,Northern Islands ,Yes,2014,4,4,5,2,3,0,0,,
The Great House Inn,Belize,Belize City,Central Coast Belize,Yes,1999,16,16,23,3,8,0,0,17.293516,-88.105382
The Green Guest House,Orange Walk,Orange Walk,Northern Belize,Yes,2013,4,4,8,1,0,1,0,17.45244,-88.39543
The Green Salamander,Stann Creek,Placencia,SouthEastern Coast ,Yes,2015,2,1,3,1,1,0,0,,
The Lodge at Big Falls,Toledo,Toledo,Southern Belize,Yes,2003,8,8,18,3,12,0,0,16.26048,-88.89054
The Lodge at Chaa Creek ,Cayo,Cayo,Western Belize ,Yes,1980,24,24,42,118,46,0,0,17.107521,-89.073926
The Log Cab-Inn,Cayo,Cayo,Western Belize ,Yes,1996,20,20,52,8,6,0,0,17.158109,-89.069671
The Macal River Camp,Cayo,Cayo,Western Belize ,Yes,2005,10,10,36,3,1,0,0,17.112501,-89.074478
The Maine Stay,Stann Creek,Placencia,SouthEastern Coast ,Yes,2005,5,5,10,5,1,0,0,16.579017,-88.365069
The Mellow House ,Stann Creek,Placencia,SouthEastern Coast ,Yes,2014,6,3,3,0,1,0,1,16.862172,-88.283575
The Nautical Inn,Stann Creek,Placencia,SouthEastern Coast ,Yes,2010,15,15,23,1,1,0,0,16.570487,-88.365447
The New Belmoral Hotel,Cayo,Cayo,Western Belize ,No,1996,11,10,14,1,2,0,0,17.069671,-89.158109
The Old House Hostel ,Cayo,Cayo,Western Belize ,Yes,2014,5,4,21,1,1,0,0,17.155978,-89.069757
The Orange Gallery,Cayo,Cayo,Western Belize ,No,1997,4,4,8,0,6,0,0,17.203446,-88.952128
The Palms Condominium ,Belize,San Pedro,Nothern Islands,Yes,1995,13,13,30,4,8,0,0,17.90293,-87.975817
The Phoenix Resort,Belize,San Pedro,Nothern Islands,Yes,2008,30,27,54,12,17,3,4,17.921735,-87.960245
The Placencia Hotel & Residencies,Stann Creek,Placencia,SouthEastern Coast ,Yes,2003,90,86,93,70,20,2,1,16.638925,-88.331283
The Red Hut Inn,Belize,Belize City,Central Coast Belize,Yes,2006,7,7,8,1,1,0,0,17.49753,-88.188547
The Sail House,Belize,Caye Caulker,Northern Islands ,Yes,2009,2,1,3,1,1,0,0,,
The Sands Inn,Belize,Caye Caulker,Northern Islands ,Yes,2016,2,2,2,0,0,0,0,17.44214,-88.015234
The Savannah Guest House ,Belize,Belize Rural,Central Coast Belize,Yes,2012,3,3,6,1,1,0,0,17.363038,-88.654584
The Sea Front Inn,Toledo,Toledo,Southern Belize,Yes,1998,19,19,37,3,6,0,0,16.060029,-88.800417
The Smuggler's Den,Corozal,Corozal,Northern Belize,Yes,1994,5,5,5,3,2,0,0,18.465377,-88.301928
The Stand Center,Cayo,Cayo,Western Belize ,Yes,2012,1,1,5,0,0,1,1,17.14913,-88.836528
The Tranquila Caye,Belize,Caye Caulker,Northern Islands ,Yes,2014,2,2,2,0,0,0,1,17.761161,-88.027839
The Tree House,Belize,San Pedro,Nothern Islands,Yes,2010,2,2,2,1,0,0,0,17.972897,-87.927254
The Trek Stop,Cayo,Cayo,Western Belize ,Yes,2010,17,14,28,2,2,0,0,17.052424,-89.072414
The Village Inn,Stann Creek,Placencia,SouthEastern Coast ,Yes,2005,4,4,8,0,0,0,0,16.312737,-88.220712
The Villas at Cocoplum,Stann Creek,Placencia,SouthEastern Coast ,Yes,2009,40,13,17,2,0,0,0,16.588525,-88.359546
The White House in Placencia,Stann Creek,Placencia,SouthEastern Coast ,Yes,2015,1,1,3,1,1,0,0,16.523146,-88.368687
The WindFlower,Stann Creek,Placencia,SouthEastern Coast ,Yes,2011,2,2,2,0,0,0,0,16.520207,-88.372933
Three Iguanas Villas,Stann Creek,Placencia,SouthEastern Coast ,Yes,2008,4,3,6,0,0,0,0,,
Three Star Guest House,Belize,Belize City,Central Coast Belize,No,1997,18,10,11,0,0,0,0,17.509464,-88.194695
Tiki Maya House,Belize,San Pedro,Nothern Islands,Yes,2015,3,3,3,0,1,0,0,17.56275,-87.56521
Tillett's Village Lodge,Belize,Belize Rural,Central Coast Belize,Yes,2010,7,7,13,1,1,0,0,,
Tipple Tree Beya,Stann Creek,Stann Creek,SouthEastern Coast ,Yes,1998,4,4,5,0,1,0,0,16.839957,-88.273463
Tobacco Caye Lodge,Stann Creek,Offshore South,SouthEastern Coast ,Yes,1999,13,9,36,3,5,0,0,16.898322,-88.061673
Tobacco Caye Paradise Cabins,Stann Creek,Offshore South,SouthEastern Coast ,Yes,1999,7,7,12,2,4,0,0,16.898174,-88.061814
Toledo Ecotourism Association (2007) G/H,Toledo,Toledo,Southern Belize,Yes,2007,5,5,45,30,25,0,0,,
Tomas Hotel,Belize,San Pedro,Nothern Islands,Yes,1980,12,6,12,0,1,0,0,17.920693,-87.961092
Tony's Inn and Beach Resort,Corozal,Corozal,Northern Belize,Yes,1971,24,24,44,5,15,0,0,18.380869,-88.397228
Toucan Lulu,Stann Creek,Placencia,SouthEastern Coast ,Yes,1999,1,1,7,0,0,0,1,16.522128,-88.36887
Touch of Class Comfort Inn,Cayo,Cayo,Western Belize ,Yes,2001,12,10,12,1,1,0,0,17.165157,-89.058651
Tradewinds Hotel,Stann Creek,Placencia,SouthEastern Coast ,Yes,1988,11,11,20,3,2,0,0,16.3051,-88.21522
Tradewinds Paradise Villas,Belize,San Pedro,Nothern Islands,Yes,1996,8,8,10,1,3,0,0,17.919411,-87.955767
"Tranguility Beach Club #5, 8 , & 9",Belize,San Pedro,Nothern Islands,Yes,2010,8,8,8,1,1,0,0,17.891677,-87.979251
Tranquility Bay Resort,Belize,San Pedro,Nothern Islands,Yes,2006,22,11,20,10,9,0,0,18.09263,-87.869527
Tranquility Lodge,Toledo,Toledo,Southern Belize,No,2001,14,7,16,2,1,0,0,16.155772,-88.890072
Travellers Tree House Bed & Breakfast,Belize,San Pedro,Nothern Islands,Yes,2015,2,1,3,1,0,0,1,17.543867,-87.582714
Tree Tops Guest House,Belize,Caye Caulker,Northern Islands ,Yes,1995,12,6,8,0,2,0,0,17.739156,-88.025634
Trellis House ,Belize,Caye Caulker,Northern Islands ,Yes,2016,3,3,3,0,0,0,0,17.44201,-88.01548
Tres Banderas Vacation Home,Belize,San Pedro,Nothern Islands,Yes,2013,2,2,2,0,1,0,1,,
Triple B-Becks' Bed & Breakfast,Belize,Belize Rural,Central Coast Belize,No,2013,4,3,5,0,1,0,0,17.444492,-88.191008
Tri-Tan Beach Cabanas,Stann Creek,Placencia,SouthEastern Coast ,Yes,2000,2,2,1,0,0,0,0,16.521223,-88.368512
Tropical Dream Vacation Rentals ,Belize,Caye Caulker,Northern Islands ,Yes,2014,4,4,7,0,1,0,0,,
Tropical Education Centre,Belize,Belize Rural,Central Coast Belize,Yes,1996,22,22,40,5,7,0,0,17.357758,-88.54233
Tropical Escape,Belize,San Pedro,Nothern Islands,Yes,2011,3,3,6,0,1,0,1,17.992188,-87.918055
Tropical Oasis,Belize,Caye Caulker,Northern Islands ,Yes,2010,7,7,18,0,0,0,0,17.747387,-88.02411
Tropical Paradise Resort,Belize,Caye Caulker,Northern Islands ,Yes,1978,28,28,54,4,4,0,0,17.740432,-88.024809
Tropicana Hotel & Condominium,Belize,San Pedro,Nothern Islands,Yes,2016,6,4,8,2,1,2,0,17.5439,-87.56146
Tropicool Hotel,Cayo,Cayo,Western Belize ,Yes,1995,11,11,18,0,1,0,0,17.158801,-88.070179
Turneffe Flats Resort,Belize,Offshore North,Northern Islands ,Yes,1985,14,14,27,23,8,0,0,17.205058,-87.593855
Turneffe Island Resort,Belize,Offshore North,Northern Islands ,Yes,2001,22,22,30,34,15,1,2,17.203593,-87.867951
Turquesa Vacation Home ,Belize,San Pedro,Nothern Islands,Yes,2003,2,2,2,1,0,0,0,,
Turtle Beach Cabanas,Belize,San Pedro,Nothern Islands,Yes,2013,2,2,2,1,1,0,0,,
Turtle Cove,Belize,San Pedro,Nothern Islands,Yes,2014,8,4,5,1,1,0,0,17.59648,-87.54926
Turtle Inn,Stann Creek,Placencia,SouthEastern Coast ,Yes,2000,28,28,38,101,23,1,2,16.531233,-88.361542
Tutzil Nah Cottages,Stann Creek,Hopkins,SouthEastern Coast ,Yes,2000,6,6,8,3,1,0,0,16.47564,-88.22497
Twisted Palm Villa,Belize,San Pedro,Nothern Islands,Yes,2016,7,6,6,0,1,0,0,17.5607,-87.57094
Upstairs Lounge Inn,Toledo,Toledo,Southern Belize,Yes,2004,6,6,8,0,0,0,0,16.060087,-88.481496
Ursella's Guest House,Stann Creek,Stann Creek,SouthEastern Coast ,Yes,1989,7,7,9,0,1,0,0,16.58139,-88.250134
Valarosa,Belize,Caye Caulker,Northern Islands ,Yes,2011,1,1,1,0,1,0,0,17.761148,-88.027754
Vandely's Guest House,Stann Creek,Placencia,SouthEastern Coast ,Yes,1999,3,3,4,2,2,0,0,16.3118,-88.2208
Vanilla Hills,Cayo,Cayo,Western Belize ,Yes,2013,4,4,7,3,2,0,0,17.095765,-89.062095
Vega Inn and Gardens,Belize,Caye Caulker,Northern Islands ,Yes,1965,7,7,21,0,1,0,0,17.74372,-88.023506
Venus Hotel,Cayo,Cayo,Western Belize ,Yes,1990,29,22,46,2,3,0,0,17.159031,-89.070281
Victoria House,Belize,San Pedro,Nothern Islands,Yes,1978,42,42,49,57,32,1,0,17.540028,-87.583644
Victor's Inn,Orange Walk,Orange Walk,Northern Belize,No,2001,24,12,15,1,2,0,0,18.5007,-88.32452
View The Blue,Belize,San Pedro,Nothern Islands,Yes,2005,5,5,7,1,1,0,0,17.88106,-87.991537
Villa Almendra,Belize,Caye Caulker,Northern Islands ,Yes,2008,3,3,4,0,1,0,0,,
Villa Aurora ,Belize,San Pedro,Nothern Islands,No,2008,8,4,5,0,1,0,0,17.59186,-87.55115
Villa Boscardi,Belize,Belize City,Central Coast Belize,Yes,1999,8,8,10,0,3,0,0,17.513807,-88.215572
Villa Cayo,Cayo,Cayo,Western Belize ,Yes,2015,2,2,2,2,2,0,0,17.084342,-89.025874
Villa De Plata,Belize,San Pedro,Nothern Islands,Yes,2008,3,3,3,1,0,0,0,,
Villa Gemma,Belize,Caye Caulker,Northern Islands ,Yes,2010,1,1,1,3,3,0,0,17.726334,-88.028523
Villa Groovy Gecko,Stann Creek,Placencia,SouthEastern Coast ,Yes,2014,5,5,6,0,0,0,0,16.37483,-88.20408
Villa Hermosa,Belize,Caye Caulker,Northern Islands ,Yes,2006,2,1,3,0,1,0,0,17.737723,-88.02727
Villa Incomunicada ,Belize,San Pedro,Nothern Islands,Yes,2008,6,6,8,2,1,0,0,17.524786,-87.593938
Villa Incomunicada 2,Belize,San Pedro,Nothern Islands,Yes,2014,6,6,8,2,1,0,0,17.879458,-87.994141
Villa Jammin Gecko,Stann Creek,Placencia,SouthEastern Coast ,Yes,2015,6,5,5,0,0,0,0,16.629932,-88.343983
Villa Lazy Gecko,Stann Creek,Placencia,SouthEastern Coast ,,2012,8,4,10,1,1,0,0,,
Villa Ragazza,Belize,San Pedro,Nothern Islands,Yes,2014,3,3,3,1,1,0,0,17.525704,-87.592584
Villa Ranguana,Stann Creek,Placencia,SouthEastern Coast ,Yes,2009,1,1,8,2,1,0,0,16.544074,-88.356594
Villa San Juan,Cayo,Belmopan,Western Belize ,Yes,2011,8,8,8,1,1,0,0,17.526425,-88.778185
Villa Tipsy Gecko ,Stann Creek,Placencia,SouthEastern Coast ,Yes,2010,4,4,4,1,1,0,0,16.37479,-88.20415
Villa Twin Dolphins,Belize,San Pedro,Nothern Islands,Yes,2010,1,1,6,1,0,0,0,17.882463,-87.990129
Villa Verano,Stann Creek,Hopkins,SouthEastern Coast ,Yes,2011,10,10,18,4,7,0,1,16.838962,-88.270236
Village View Rental,Stann Creek,Placencia,SouthEastern Coast ,Yes,2013,5,5,5,0,1,0,0,16.514309,-88.366722
Vista Del Mar Guesthouse ,Belize,Caye Caulker,Northern Islands ,Yes,1975,10,10,15,1,3,0,0,17.744918,-88.02367
Warrie Head Lodge,Cayo,Belmopan,Western Belize ,No,1988,10,10,17,1,2,0,0,17.133483,-88.52367
Waruguma Inn,Toledo,Toledo,Southern Belize,Yes,2013,4,4,6,0,0,0,0,16.060087,-88.483692
Wataview,Belize,San Pedro,Nothern Islands,Yes,2012,5,5,6,1,2,0,1,17.888117,-87.982349
Watercolor,Belize,San Pedro,Nothern Islands,No,2015,3,3,2,1,1,0,0,17.5876,-87.55243
Water's Edge- A Mata Grande Villa,Belize,San Pedro,Nothern Islands,Yes,2012,5,5,8,1,0,0,0,,
Watson's Rentals,Cayo,Belmopan,Western Belize ,Yes,2016,4,1,1,0,0,0,0,17.140589,-88.454026
Weezie's Cabins ,Belize,Caye Caulker,Northern Islands ,Yes,2011,3,3,7,3,2,1,2,17.735714,-88.026972
West Lake Park Motel,Belize,Belize Rural,Central Coast Belize,Yes,2009,8,8,8,0,2,0,0,,
Weyohan Hotel,Stann Creek,Stann Creek,SouthEastern Coast ,Yes,1996,17,17,25,1,1,0,0,16.9512,-88.1322
Whipray Caye Lodge,Stann Creek,Offshore South,SouthEastern Coast ,Yes,1997,8,8,8,1,1,0,0,16.32234,-88.13053
Whistling Seas Vacation Inn,Stann Creek,Hopkins,SouthEastern Coast ,Yes,2002,10,5,11,1,2,0,0,16.855361,-88.281056
White Sand Villa,Stann Creek,Placencia,SouthEastern Coast ,Yes,2005,2,2,3,1,1,0,0,16.30575,-88.22004
White Sands Cove,Belize,San Pedro,Nothern Islands,Yes,2010,18,18,23,4,9,1,1,17.57061,-87.56301
Wild Orchid Villa,Stann Creek,Placencia,SouthEastern Coast ,Yes,2009,8,8,10,7,4,0,0,16.32457,-88.21353
Windschief,Stann Creek,Hopkins,SouthEastern Coast ,Yes,2005,3,2,3,0,1,1,0,16.51321,-88.16556
Windy Hill Resort  ,Cayo,Cayo,Western Belize ,Yes,1989,22,22,48,17,3,0,0,17.141853,-89.087296
Wolf's Place,Cayo,Cayo,Western Belize ,Yes,2016,5,3,3,0,2,1,0,17.224314,-88.913697
Wrecked Beach,Stann Creek,Placencia,SouthEastern Coast ,Yes,2014,4,2,2,1,1,0,0,16.62039,-88.352717
X Tan Ha Resort,Belize,San Pedro,Nothern Islands,Yes,2012,51,39,81,14,6,0,0,18.011055,-87.910024
Xanadu Island Resort,Belize,San Pedro,Nothern Islands,Yes,1999,33,20,33,10,10,0,1,17.90806,-87.973119
Yam Wits Lodge,Cayo,Cayo,Western Belize ,Yes,2004,6,6,11,1,2,0,0,17.05554,-88.39418
Yaxche Jungle Camp,Cayo,Cayo,Western Belize ,Yes,2013,4,3,10,2,2,0,0,17.085458,-88.401738
Yellow Bell Guest House ,Belize,Belize Rural,Central Coast Belize,Yes,2013,3,3,3,1,1,0,0,17.103366,-88.195198
Yellow Bella,Stann Creek,Placencia,SouthEastern Coast ,Yes,2008,3,3,7,0,0,0,0,16.525749,-88.369668
Yim Saan Hotel,Cayo,Belmopan,Western Belize ,Yes,2002,25,22,40,1,4,0,0,17.251223,-88.785523
Yok Ha Resort ,Stann Creek,Offshore South,SouthEastern Coast ,Yes,2012,10,5,7,4,6,0,0,16.590202,-88.055094
Yugadah Inn,Stann Creek,Hopkins,SouthEastern Coast ,No,1998,4,4,6,0,1,0,0,16.51275,-88.16842
Yuma's House Belize,Belize,Caye Caulker,Northern Islands ,Yes,2010,13,11,25,2,3,0,0,17.44503,-88.01469
YWAM - Destination Paradise Caribbean,Belize,San Pedro,Nothern Islands,Yes,2013,30,30,20,1,0,0,0,17.58008,-87.55483
Zeke's Casa Roja ,Belize,Caye Caulker,Northern Islands ,Yes,2007,2,1,3,0,1,0,1,17.736628,-88.028619
Zen Arcade,Belize,San Pedro,Nothern Islands,,2014,6,3,3,0,0,0,0,,
